time,field.header.seq,field.header.stamp,field.header.frame_id,field.motor_refs0.id,field.motor_refs0.type,field.motor_refs0.ref,field.motor_refs1.id,field.motor_refs1.type,field.motor_refs1.ref,field.motor_refs2.id,field.motor_refs2.type,field.motor_refs2.ref,field.motor_refs3.id,field.motor_refs3.type,field.motor_refs3.ref,field.motor_refs4.id,field.motor_refs4.type,field.motor_refs4.ref,field.motor_refs5.id,field.motor_refs5.type,field.motor_refs5.ref,field.motor_refs6.id,field.motor_refs6.type,field.motor_refs6.ref,field.motor_refs7.id,field.motor_refs7.type,field.motor_refs7.ref,field.motor_refs8.id,field.motor_refs8.type,field.motor_refs8.ref,field.motor_refs9.id,field.motor_refs9.type,field.motor_refs9.ref,field.motor_refs10.id,field.motor_refs10.type,field.motor_refs10.ref,field.motor_refs11.id,field.motor_refs11.type,field.motor_refs11.ref
1680791200164670243,968359,1680791200164670243,,12,0,-0.5376990323046271,11,0,-0.37794440791693806,10,0,0.5480896135069324,9,0,0.38833498911924347,4,0,-0.2600168360160717,8,0,-0.16078777205013567,2,0,-0.2366622011924795,6,0,-0.12694319979109503,3,0,0.2298246388627953,7,0,0.12010563746141084,1,0,0.26685439834575586,5,0,0.16762533437981986
1680791200174671912,968360,1680791200174671912,,12,0,-0.5373013768808013,11,0,-0.37880801842661493,10,0,0.5479240856503627,9,0,0.38943072719617644,4,0,-0.2592049451905406,8,0,-0.16028973625178047,2,0,-0.23563978162527033,6,0,-0.12628632426359807,3,0,0.2287455392905311,7,0,0.11939208192885883,1,0,0.26609918752527983,5,0,0.1671839785865197
1680791200184671953,968361,1680791200184671953,,12,0,-0.5350746810457412,11,0,-0.37835256781782584,10,0,0.5454191790038319,9,0,0.3886970657759164,4,0,-0.2592116801020416,8,0,-0.16211980057604294,2,0,-0.23299255175947378,6,0,-0.12324725965816863,3,0,0.22600654183979021,7,0,0.11626124973848509,1,0,0.26619769002172516,5,0,0.1691058104957265
1680791200194706254,968362,1680791200194706254,,12,0,-0.530803075334577,11,0,-0.37621671311518334,10,0,0.5405241151632184,9,0,0.3859377529438246,4,0,-0.2597444154018825,8,0,-0.16575291293090288,2,0,-0.22883183136330063,6,0,-0.11813156266423548,3,0,0.22168016662869727,7,0,0.11097989792963213,1,0,0.26689608013648586,5,0,0.1729045776655062
1680791200204671548,968363,1680791200204671548,,12,0,-0.5280399030139754,11,0,-0.3765881972713551,10,0,0.5376304964875634,9,0,0.38617879074494327,4,0,-0.258538770535466,8,0,-0.16661740623284635,2,0,-0.22518828089851356,6,0,-0.11462211882166565,3,0,0.2179093023675866,7,0,0.10734314029073869,1,0,0.26581774906639294,5,0,0.1738963847637733
1680791200214666952,968364,1680791200214666952,,12,0,-0.5274735640747703,11,0,-0.37851119361229485,10,0,0.5373124338272524,9,0,0.3883500633647768,4,0,-0.256661581060487,8,0,-0.16523392672081583,2,0,-0.22344521776243814,6,0,-0.11369874541216193,3,0,0.21613176080568647,7,0,0.10638528845541023,1,0,0.26397503801723865,5,0,0.1725473836775675
1680791200224666783,968365,1680791200224666783,,12,0,-0.5255127820628168,11,0,-0.37880691608677003,10,0,0.5342332269426592,9,0,0.3875273609666125,4,0,-0.25810982519518777,8,0,-0.16812624429530212,2,0,-0.22058272156731876,6,0,-0.11109617203471947,3,0,0.21753594743278556,7,0,0.10804939790018628,1,0,0.26115659932972096,5,0,0.17117301842983532
1680791200234671367,968366,1680791200234671367,,12,0,-0.5211458256359324,11,0,-0.3772871805768114,10,0,0.52744573195917,9,0,0.3835870869000489,4,0,-0.26210651283562375,8,0,-0.17488750199620998,2,0,-0.21561825719682098,6,0,-0.10609810162463681,3,0,0.22110210732832855,7,0,0.11158195175614438,1,0,0.25662266270411616,5,0,0.16940365186470238
1680791200244673376,968367,1680791200244673376,,12,0,-0.518849291429732,11,0,-0.37724151117317295,10,0,0.5241947753820659,9,0,0.38258699512550687,4,0,-0.2631101148572882,8,0,-0.1774322012144386,2,0,-0.21264922800076577,6,0,-0.10335071888837927,3,0,0.22162820797502722,7,0,0.11232969886264071,1,0,0.25413113488302674,5,0,0.16845322124017714
1680791200254668528,968368,1680791200254668528,,12,0,-0.5186611140481477,11,0,-0.3784753041207401,10,0,0.5245052914024587,9,0,0.3843194814750512,4,0,-0.26135833396228153,8,0,-0.17570385379587808,2,0,-0.21259094861188021,6,0,-0.10394323176458646,3,0,0.22003755040882728,7,0,0.1113898335615335,1,0,0.25391173216533447,5,0,0.16825725199893102
1680791200264668962,968369,1680791200264668962,,12,0,-0.5180114853137449,11,0,-0.3794339398065004,10,0,0.5240998350606475,9,0,0.38552228955340306,4,0,-0.26014301635888565,8,0,-0.17451182280121783,2,0,-0.21290596858142846,6,0,-0.10514210013365939,3,0,0.21968910436057165,7,0,0.11192523591280261,1,0,0.25335988057974246,5,0,0.16772868702207464
1680791200274668354,968370,1680791200274668354,,12,0,-0.5162194034193952,11,0,-0.37874473771080336,10,0,0.5218400269078884,9,0,0.3843653611992967,4,0,-0.2606812108564895,8,0,-0.17580565926878858,2,0,-0.21502025343873335,6,0,-0.1075260245977085,3,0,0.22022198886559163,7,0,0.11272776002456679,1,0,0.25547947542963123,5,0,0.17060392384193032
1680791200284673228,968371,1680791200284673228,,12,0,-0.5132791660105526,11,0,-0.3757864952813602,10,0,0.5179867499236294,9,0,0.380494079194437,4,0,-0.2624084753052469,8,0,-0.17868840451298537,2,0,-0.21947726514448918,6,0,-0.11164181653309253,3,0,0.221158605426925,7,0,0.11332315681552839,1,0,0.2607271350228111,5,0,0.17700706423054954
1680791200294669026,968372,1680791200294669026,,12,0,-0.5116683313894623,11,0,-0.37512684967797716,10,0,0.5160185017391408,9,0,0.3794770200276556,4,0,-0.26242416350041137,8,0,-0.17946267205230934,2,0,-0.2207094486767122,6,0,-0.1130099200593266,3,0,0.22081243500155875,7,0,0.11311290638417319,1,0,0.2623211771755648,5,0,0.17935968572746278
1680791200304670300,968373,1680791200304670300,,12,0,-0.5112403667776803,11,0,-0.3767488767159259,10,0,0.5157958686542264,9,0,0.3813043785924722,4,0,-0.26080695865437364,8,0,-0.17829459066662642,2,0,-0.21849543578791236,6,0,-0.11141896635626994,3,0,0.21914143201095138,7,0,0.11206496257930898,1,0,0.26016096243133463,5,0,0.1776485944435874
1680791200314672163,968374,1680791200314672163,,12,0,-0.509097083440545,11,0,-0.37536369544945364,10,0,0.5145287125742894,9,0,0.38079532458319804,4,0,-0.2584304100258728,8,0,-0.1745865084090547,2,0,-0.22134391324189748,6,0,-0.11637948241780681,3,0,0.22038190185567583,7,0,0.11541747103158519,1,0,0.25939242141209445,5,0,0.17554851979527636
1680791200324672515,968375,1680791200324672515,,12,0,-0.5047595318441638,11,0,-0.37016117373564605,10,0,0.5117095690790854,9,0,0.37711121097056766,4,0,-0.25519317328476626,8,0,-0.1681831655702497,2,0,-0.2293156632117387,6,0,-0.12796518117096856,3,0,0.22456954880722343,7,0,0.12321906676645326,1,0,0.25993928768928154,5,0,0.17292927997476498
1680791200334668119,968376,1680791200334668119,,12,0,-0.502506501678869,11,0,-0.368540782616923,10,0,0.510113356120836,9,0,0.37614763705889,4,0,-0.2532207855029102,8,0,-0.16520180864852915,2,0,-0.23194457461991635,6,0,-0.13237592883540164,3,0,0.22560668702324999,7,0,0.12603804123873527,1,0,0.2595586730995766,5,0,0.17153969624519552
1680791200344668861,968377,1680791200344668861,,12,0,-0.502299834734954,11,0,-0.37054261591407356,10,0,0.5097037053905739,9,0,0.37794648656969343,4,0,-0.2524623770125545,8,0,-0.16561542680811572,2,0,-0.22917612440811122,6,0,-0.12958029057442513,3,0,0.2234387216238565,7,0,0.1238428877901704,1,0,0.2581997797968092,5,0,0.17135282959237044
1680791200354668161,968378,1680791200354668161,,12,0,-0.502554701613429,11,0,-0.36988774996463136,10,0,0.5083124939598048,9,0,0.37564554231100733,4,0,-0.25466915393467454,8,0,-0.1678834224462334,2,0,-0.22896500879164908,6,0,-0.129004785731687,3,0,0.2274562399743795,7,0,0.12749601691441742,1,0,0.2561779227519441,5,0,0.16939219126350297
1680791200364668537,968379,1680791200364668537,,12,0,-0.5027692186510636,11,0,-0.3657342046748119,10,0,0.5054370810473757,9,0,0.368402067071124,4,0,-0.25979601334263114,8,0,-0.17192103875685785,2,0,-0.2313169152424948,6,0,-0.1306516456065935,3,0,0.2376667931346676,7,0,0.1370015234987663,1,0,0.25344613545045835,5,0,0.16557116086468507
1680791200374668559,968380,1680791200374668559,,12,0,-0.5023832103918237,11,0,-0.3645774990351261,10,0,0.5037871930976693,9,0,0.3659814817409716,4,0,-0.2612356323442531,8,0,-0.17321144987752363,2,0,-0.23161913871161952,6,0,-0.13097625330963347,3,0,0.24120637097831935,7,0,0.1405634855763333,1,0,0.2516484000775533,5,0,0.1636242176108238
1680791200384669532,968381,1680791200384669532,,12,0,-0.5013646642512003,11,0,-0.36646057854049174,10,0,0.503331235156988,9,0,0.3684271494462794,4,0,-0.2589484776355896,8,0,-0.17175160364800554,2,0,-0.22978866505705645,6,0,-0.12990314169765946,3,0,0.2379936273300107,7,0,0.1381081039706137,1,0,0.25074351536263534,5,0,0.1635466413750513
1680791200394699795,968382,1680791200394699795,,12,0,-0.5004463422831368,11,0,-0.36784582421967277,10,0,0.5026540402905008,9,0,0.37005352222703664,4,0,-0.2572792046451531,8,0,-0.17076562894304367,2,0,-0.22826990477333114,6,0,-0.12901061166205277,3,0,0.23588907190581976,7,0,0.13662977879454138,1,0,0.24966003751266447,5,0,0.16314646181055506
1680791200404668248,968383,1680791200404668248,,12,0,-0.5037063540039955,11,0,-0.37667303227411847,10,0,0.5053787564204705,9,0,0.3783454346905933,4,0,-0.2532400632906784,8,0,-0.16863194975996634,2,0,-0.22637511734698978,6,0,-0.1271830593137461,3,0,0.23001837533781072,7,0,0.13082631730456704,1,0,0.24959680529985745,5,0,0.1649886917691454
1680791200414668287,968384,1680791200414668287,,12,0,-0.5104434357277026,11,0,-0.39274798204569816,10,0,0.5111746399876758,9,0,0.39347918630567136,4,0,-0.24596575312277688,8,0,-0.16467454196367567,2,0,-0.22360828975548727,6,0,-0.12410591418658848,3,0,0.2189610853965748,7,0,0.11945870982767604,1,0,0.2506129574816894,5,0,0.16932174632258815
1680791200424667909,968385,1680791200424667909,,12,0,-0.5126871009340168,11,0,-0.3999888548869732,10,0,0.5130650694176304,9,0,0.40036682337058693,4,0,-0.2422906528256392,8,0,-0.16254021068904162,2,0,-0.22232691450100858,6,0,-0.12320445791621078,3,0,0.21415165591628196,7,0,0.11502919933148413,1,0,0.25046591141036584,5,0,0.17071546927376824
1680791200434667231,968386,1680791200434667231,,12,0,-0.5104655664423539,11,0,-0.39827977714395973,10,0,0.5110160672286688,9,0,0.39883027793027453,4,0,-0.24234894641659321,8,0,-0.1623192720225776,2,0,-0.2226352149352303,6,0,-0.12455765752164875,3,0,0.2158420858072479,7,0,0.11776452839366634,1,0,0.24914207554457563,5,0,0.16911240115056
1680791200444707753,968387,1680791200444707753,,12,0,-0.5071424806937143,11,0,-0.3977771456982444,10,0,0.5076519269232073,9,0,0.3982865919277374,4,0,-0.24139386204359675,8,0,-0.16218454172727992,2,0,-0.22216903174715724,6,0,-0.12544794149721933,3,0,0.21571065609943413,7,0,0.11898956584949623,1,0,0.24785223769131987,5,0,0.16864291737500303
1680791200454667375,968388,1680791200454667375,,12,0,-0.5021653873015537,11,0,-0.3976391893377247,10,0,0.502430930915168,9,0,0.397904732951339,4,0,-0.2393450241681746,8,0,-0.16203870367624124,2,0,-0.22088637783315518,6,0,-0.12584262099064736,3,0,0.2136985863870856,7,0,0.11865482954457779,1,0,0.24653281561424417,5,0,0.1692264951223108
1680791200464669722,968389,1680791200464669722,,12,0,-0.4996262633207731,11,0,-0.39817176362808515,10,0,0.4997966788804187,9,0,0.39834217918773074,4,0,-0.2378092381582446,8,0,-0.1616485441758355,2,0,-0.21956660654390311,6,0,-0.12549239796285386,3,0,0.2120517471537273,7,0,0.11797753857267804,1,0,0.2453240975484204,5,0,0.1691634035660113
1680791200474668599,968390,1680791200474668599,,12,0,-0.49951778319734175,11,0,-0.39938253561862913,10,0,0.4997381626381562,9,0,0.39960291505944356,4,0,-0.2367800102545942,8,0,-0.1610121869732589,2,0,-0.2182044820267627,6,0,-0.12439690504302729,3,0,0.2107694088353708,7,0,0.11696183185163535,1,0,0.2442150834459861,5,0,0.1684472601646508
1680791200484668237,968391,1680791200484668237,,12,0,-0.49899371169836443,11,0,-0.4004713899296391,10,0,0.4992362415431418,9,0,0.40071391977441645,4,0,-0.2356884638203504,8,0,-0.1604408528486761,2,0,-0.21686370214835943,6,0,-0.1234417822931318,3,0,0.20945374632803332,7,0,0.11603182647280569,1,0,0.24309841964067652,5,0,0.1678508086690022
1680791200494667079,968392,1680791200494667079,,12,0,-0.49914755544931644,11,0,-0.39832519329520494,10,0,0.49858837261375566,9,0,0.39776601045964416,4,0,-0.23622839404984328,8,0,-0.16016293178377375,2,0,-0.2178960913553968,6,0,-0.12423733656086193,3,0,0.21199806688536602,7,0,0.11833931209083114,1,0,0.24212641851987407,5,0,0.16606095625380454
1680791200504667800,968393,1680791200504667800,,12,0,-0.49989161250547093,11,0,-0.3922672545588028,10,0,0.49774064730499207,9,0,0.39011628935832393,4,0,-0.23837582994537662,8,0,-0.15998894745454884,2,0,-0.22125937731015574,6,0,-0.12663854859035917,3,0,0.21841814659815992,7,0,0.12379731787836334,1,0,0.24121706065737245,5,0,0.16283017816654466
1680791200514666748,968394,1680791200514666748,,12,0,-0.49972769035103987,11,0,-0.3903798059135228,10,0,0.49692640982839925,9,0,0.38757852539088217,4,0,-0.23856996100741132,8,0,-0.15955976775664932,2,0,-0.2219154859759436,6,0,-0.12720129337467384,3,0,0.2203216680809386,7,0,0.12560747547966883,1,0,0.24016377890241633,5,0,0.16115358565165433
1680791200524672503,968395,1680791200524672503,,12,0,-0.49862108057380405,11,0,-0.3925884720476557,10,0,0.4960984335397898,9,0,0.3900658250136414,4,0,-0.23685598435862018,8,0,-0.158914975932856,2,0,-0.21993437119244327,6,0,-0.12599184303406133,3,0,0.21777495893748786,7,0,0.12383243077910593,1,0,0.2390153966135756,5,0,0.16107438818781142
1680791200534667877,968396,1680791200534667877,,12,0,-0.4965443187052098,11,0,-0.3944163770590412,10,0,0.49443257257031475,9,0,0.39230463092414614,4,0,-0.23934375726360438,8,0,-0.1642687148893917,2,0,-0.21611393913952756,6,0,-0.12165092696153328,3,0,0.21483743722540302,7,0,0.12037442504740876,1,0,0.24062025917772892,5,0,0.16554521680351625
1680791200544669990,968397,1680791200544669990,,12,0,-0.4928910167986539,11,0,-0.39510109261976023,10,0,0.4913307358333966,9,0,0.39354081165450294,4,0,-0.24593988925786706,8,0,-0.17559348721536108,2,0,-0.21025088872550782,6,0,-0.11397965233275861,3,0,0.21131598205149602,7,0,0.11504474565874684,1,0,0.24487479593187886,5,0,0.17452839388937288
1680791200554671635,968398,1680791200554671635,,12,0,-0.49085499123712584,11,0,-0.3959942525300981,10,0,0.48952806872370114,9,0,0.3946673300166734,4,0,-0.24808302346898278,8,0,-0.1801016628606228,2,0,-0.20704427922440943,6,0,-0.1102924311840524,3,0,0.20906453713319392,7,0,0.11231268909283688,1,0,0.24606276556019832,5,0,0.17808140495183833
1680791200564670594,968399,1680791200564670594,,12,0,-0.49049046507627,11,0,-0.3970315004817543,10,0,0.4890744924847538,9,0,0.39561552789023813,4,0,-0.24578790801681716,8,0,-0.17773607752169934,2,0,-0.20663331023115245,6,0,-0.1107302990239352,3,0,0.2082091777244805,7,0,0.11230616651726326,1,0,0.2442120405234891,5,0,0.1761602100283713
1680791200574690139,968400,1680791200574690139,,12,0,-0.48882942836292964,11,0,-0.39782167129443924,10,0,0.48776476612875597,9,0,0.39675700906026556,4,0,-0.2431452532569183,8,0,-0.17460285100253123,2,0,-0.21050372976778345,6,0,-0.11663896217856064,3,0,0.2086515427345759,7,0,0.11478677514535311,1,0,0.24499744029012585,5,0,0.17645503803573878
1680791200584676924,968401,1680791200584676924,,12,0,-0.4852844122894411,11,0,-0.39754336105886284,10,0,0.48501774865794234,9,0,0.3972766974273641,4,0,-0.24004028755053397,8,0,-0.17058815643131253,2,0,-0.21857141038475392,6,0,-0.12796155889576072,3,0,0.21030504875825756,7,0,0.11969519726926436,1,0,0.24830664917703033,5,0,0.1788545180578089
1680791200594669290,968402,1680791200594669290,,12,0,-0.4833203093434186,11,0,-0.3979881131001097,10,0,0.48339691772647436,9,0,0.39806472148316546,4,0,-0.2382112735336498,8,0,-0.16875726444992772,2,0,-0.22121914088549105,6,0,-0.1322127187959885,3,0,0.21025786129040808,7,0,0.12125143920090554,1,0,0.24917255312873277,5,0,0.1797185440450107
1680791200604666349,968403,1680791200604666349,,12,0,-0.48294363022795733,11,0,-0.3991564912474869,10,0,0.482900723889167,9,0,0.3991135849086966,4,0,-0.23766515139712321,8,0,-0.16911116346105648,2,0,-0.21845205709659585,6,0,-0.12940004678793732,3,0,0.2085407450085928,7,0,0.11948873469993425,1,0,0.24757646348512627,5,0,0.17902247554905953
1680791200614668402,968404,1680791200614668402,,12,0,-0.48230867868607763,11,0,-0.40018659755351205,10,0,0.4822211000912614,9,0,0.4000990189586958,4,0,-0.23692888344377402,8,0,-0.16911215980038705,2,0,-0.216631448482511,6,0,-0.12780826475377713,3,0,0.20714609371505907,7,0,0.1183229099863252,1,0,0.24641423821122596,5,0,0.17859751456783898
1680791200624671797,968405,1680791200624671797,,12,0,-0.48187578378140794,11,0,-0.3996434883177205,10,0,0.4815540993828352,9,0,0.3993218039191478,4,0,-0.23757832873383092,8,0,-0.16928682672083512,2,0,-0.21792442744690152,6,0,-0.12965585986902511,3,0,0.20960502113995352,7,0,0.12133645356207712,1,0,0.24589773504077891,5,0,0.1776062330277831
1680791200634691329,968406,1680791200634691329,,12,0,-0.48140661269755997,11,0,-0.39686827210150794,10,0,0.4805738045530599,9,0,0.3960354639570079,4,0,-0.23976200825313607,8,0,-0.16994547128284945,2,0,-0.22120687237752304,6,0,-0.1335214886149048,3,0,0.21554105211683114,7,0,0.1278556683542129,1,0,0.24542782851382797,5,0,0.17561129154354135
1680791200644669057,968407,1680791200644669057,,12,0,-0.48075303777924,11,0,-0.39627779881853936,10,0,0.47971402186251527,9,0,0.39523878290181463,4,0,-0.24010309599484347,8,0,-0.16999651731020746,2,0,-0.2218481450528792,6,0,-0.1346667127188145,3,0,0.217315471046172,7,0,0.1301340387121073,1,0,0.24463577000155068,5,0,0.17452919131691466
1680791200654668347,968408,1680791200654668347,,12,0,-0.4798722675169115,11,0,-0.3978400966980168,10,0,0.4789400629163246,9,0,0.39690789209742994,4,0,-0.23826506294868316,8,0,-0.16885665318803464,2,0,-0.2203462801051123,6,0,-0.13385097849075014,3,0,0.21530347640224118,7,0,0.128808174787879,1,0,0.2433078666515543,5,0,0.17389945689090577
1680791200664669450,968409,1680791200664669450,,12,0,-0.47869075851749365,11,0,-0.4017705387737048,10,0,0.4779551093893367,9,0,0.40103488964554784,4,0,-0.23387232964680882,8,0,-0.16602005885581156,2,0,-0.21613596160497106,6,0,-0.1308240779165506,3,0,0.2100914382441968,7,0,0.12477955455577631,1,0,0.2399168530075831,5,0,0.17206458221658583
1680791200674667706,968410,1680791200674667706,,12,0,-0.4766572925829026,11,0,-0.40725252865287553,10,0,0.47621125650525015,9,0,0.40680649257522306,4,0,-0.22749010649260654,8,0,-0.16250495513503221,2,0,-0.20847206469078883,6,0,-0.12439243192301959,3,0,0.20095609496930417,7,0,0.1168764622015349,1,0,0.2350060762140912,5,0,0.17002092485651688
1680791200684700056,968411,1680791200684700056,,12,0,-0.4753559612880004,11,0,-0.41007322343596486,10,0,0.4750420524990968,9,0,0.4097593146470613,4,0,-0.22440586727183223,8,0,-0.16109874176043237,2,0,-0.20431949982782885,6,0,-0.1208585449841483,3,0,0.19616944730348249,7,0,0.11270849245980191,1,0,0.2325559197961786,5,0,0.16924879428477874
1680791200694669742,968412,1680791200694669742,,12,0,-0.4747857041956176,11,0,-0.41022663926360403,10,0,0.4744436350232959,9,0,0.4098845700912823,4,0,-0.22420440186362514,8,0,-0.161082439359691,2,0,-0.20413903618101994,6,0,-0.12098516612680717,3,0,0.1961829329509048,7,0,0.11302906289669203,1,0,0.23216050509374028,5,0,0.16903854258980613
1680791200704674487,968413,1680791200704674487,,12,0,-0.47408783457204245,11,0,-0.4108364693061041,10,0,0.47374868682520316,9,0,0.4104973215592648,4,0,-0.22342481190961005,8,0,-0.16069516814936854,2,0,-0.20334344692132345,6,0,-0.12059966194914681,3,0,0.1954243514845277,7,0,0.11268056651235106,1,0,0.2313439073464058,5,0,0.1686142635861643
1680791200714703689,968414,1680791200714703689,,12,0,-0.47304784197592964,11,0,-0.40983809591116477,10,0,0.4735955572487516,9,0,0.4103858111839867,4,0,-0.22375668918977956,8,0,-0.16064994737942223,2,0,-0.2040333651695749,6,0,-0.12183138395218775,3,0,0.1957625738466042,7,0,0.11356059262921701,1,0,0.23202748051275027,5,0,0.16892073870239294
1680791200724671126,968415,1680791200724671126,,12,0,-0.47130470674314245,11,0,-0.40588384890393064,10,0,0.4735816696588208,9,0,0.408160811819609,4,0,-0.22572680188273792,8,0,-0.16113569331398447,2,0,-0.20701964031619396,6,0,-0.12544343503073724,3,0,0.19819846699881077,7,0,0.11662226171335403,1,0,0.2345479752001211,5,0,0.16995686663136766
1680791200734667909,968416,1680791200734667909,,12,0,-0.4701614707336165,11,0,-0.40472248922370496,10,0,0.4731595490358234,9,0,0.40772056752591185,4,0,-0.22596107568425366,8,0,-0.161054947475035,2,0,-0.20758580301113644,6,0,-0.1265054669280544,3,0,0.1985286352857517,7,0,0.11744829920266968,1,0,0.2350182434096384,5,0,0.17011211520041972
1680791200744667819,968417,1680791200744667819,,12,0,-0.46957116662139875,11,0,-0.40646338969305407,10,0,0.47229567648317905,9,0,0.40918789955483437,4,0,-0.22433528107891818,8,0,-0.16034793249313717,2,0,-0.20556554997054724,6,0,-0.12487223251438152,3,0,0.1965473121058541,7,0,0.11585399464968839,1,0,0.2333535189436113,5,0,0.1693661703578303
1680791200754695905,968418,1680791200754695905,,12,0,-0.46914819610178154,11,0,-0.40655620512914575,10,0,0.4712426521110434,9,0,0.4086506611384076,4,0,-0.22280634209524827,8,0,-0.15875589076866814,2,0,-0.20686749238688992,6,0,-0.1266660190472335,3,0,0.19673361347433485,7,0,0.11653214013467844,1,0,0.23294022100780334,5,0,0.1688897696812232
1680791200764698256,968419,1680791200764698256,,12,0,-0.4684055344552931,11,0,-0.4041860266244175,10,0,0.46950904935959703,9,0,0.40528954152872143,4,0,-0.2213772187753792,8,0,-0.15620928839175868,2,0,-0.2116513308834967,6,0,-0.13207867017606623,3,0,0.19924595616784624,7,0,0.11967329546041577,1,0,0.23378259349102964,5,0,0.16861466310740914
1680791200774690228,968420,1680791200774690228,,12,0,-0.46769220589937444,11,0,-0.40364841343121627,10,0,0.4684007382797022,9,0,0.404356945811544,4,0,-0.2202981785928459,8,0,-0.15493126767724502,2,0,-0.21312935145825618,6,0,-0.13406149655730715,3,0,0.1997489593835109,7,0,0.12068110448256185,1,0,0.23367857066759118,5,0,0.1683116597519903
1680791200784669943,968421,1680791200784669943,,12,0,-0.4669802297450941,11,0,-0.4049944685022159,10,0,0.4678982537469497,9,0,0.40591249250407146,4,0,-0.21944769949102944,8,0,-0.1548358734474904,2,0,-0.2111331773123279,6,0,-0.13245462390771034,3,0,0.19807006122341536,7,0,0.1193915078187978,1,0,0.23251081557994197,5,0,0.16789898953640292
1680791200794667896,968422,1680791200794667896,,12,0,-0.46626227856330754,11,0,-0.4026519902335577,10,0,0.4676044236618812,9,0,0.40399413533213135,4,0,-0.21793472094891086,8,0,-0.15205146171939374,2,0,-0.21211590154899096,6,0,-0.13404415199258365,3,0,0.19860883482567843,7,0,0.12053708526927112,1,0,0.2314417876722234,5,0,0.16555852844270627
1680791200804670222,968423,1680791200804670222,,12,0,-0.46508858758966426,11,0,-0.39590144636501917,10,0,0.4670590129469005,9,0,0.3978718717222554,4,0,-0.2157011801729208,8,0,-0.14647186379302873,2,0,-0.21614089586044014,6,0,-0.1389210767704746,3,0,0.2014304230783379,7,0,0.12421060398837237,1,0,0.23041165295502306,5,0,0.16118233657513098
1680791200814669143,968424,1680791200814669143,,12,0,-0.464182202291856,11,0,-0.3935763079435032,10,0,0.46643529934512007,9,0,0.3958294049967672,4,0,-0.21417445530302665,8,0,-0.14382198262700313,2,0,-0.21723186434541597,6,0,-0.14063307487604398,3,0,0.20197224905255662,7,0,0.12537345958318463,1,0,0.229434070595886,5,0,0.15908159791986248
1680791200824669963,968425,1680791200824669963,,12,0,-0.46356424426543513,11,0,-0.3956506331247453,10,0,0.46575405142158927,9,0,0.39784044028089943,4,0,-0.21340002033253946,8,0,-0.14413468064731358,2,0,-0.21541706039601505,6,0,-0.13919313097669575,3,0,0.20027652149954184,7,0,0.12405259208022253,1,0,0.22854055922901267,5,0,0.1592752195437868
1680791200834666356,968426,1680791200834666356,,12,0,-0.4629255581666461,11,0,-0.39693615676963473,10,0,0.46510903146159094,9,0,0.39911963006457957,4,0,-0.21253752716004837,8,0,-0.14395421127946778,2,0,-0.21415438057804764,6,0,-0.13833635623814144,3,0,0.1990301586398034,7,0,0.12321213429989719,1,0,0.22766174909829262,5,0,0.15907843321771203
1680791200844666745,968427,1680791200844666745,,12,0,-0.46361421504880884,11,0,-0.3954460465652223,10,0,0.4658690929920245,9,0,0.39770092450843797,4,0,-0.2149359152455466,8,0,-0.14498278884110644,2,0,-0.21688715035700248,6,0,-0.14120766637359233,3,0,0.20347147100209192,7,0,0.12779198701868177,1,0,0.22835159460045715,5,0,0.158398468196017
1680791200854687763,968428,1680791200854687763,,12,0,-0.46524597317484157,11,0,-0.3914036607640433,10,0,0.4675803275733013,9,0,0.39373801516250306,4,0,-0.22065243735050752,8,0,-0.14769016158408632,2,0,-0.22304078108853362,6,0,-0.14721593875040445,3,0,0.2131490952432282,7,0,0.13732425290509903,1,0,0.23054412319581294,5,0,0.15758184742939174
1680791200864669378,968429,1680791200864669378,,12,0,-0.4655307533206583,11,0,-0.3902469416396322,10,0,0.4679078176658732,9,0,0.3926240059848471,4,0,-0.22246200804449928,8,0,-0.14851980665345,2,0,-0.22505030967465023,6,0,-0.14943271143446818,3,0,0.21658638569924715,7,0,0.1409687874590651,1,0,0.23092593201990236,5,0,0.15698373062885307
1680791200874670196,968430,1680791200874670196,,12,0,-0.46445975449196286,11,0,-0.3918219923623416,10,0,0.4668551754318069,9,0,0.3942174133021856,4,0,-0.22034409459039006,8,0,-0.14737439244529602,2,0,-0.22301596427133724,6,0,-0.14796533074228388,3,0,0.21386407520198636,7,0,0.138813441672933,1,0,0.22949598365974094,5,0,0.1565262815146469
1680791200884666604,968431,1680791200884666604,,12,0,-0.463417071718699,11,0,-0.39236449857793215,10,0,0.46531979578232646,9,0,0.3942672226415596,4,0,-0.21873579385100186,8,0,-0.14620884504047718,2,0,-0.22159154816956508,6,0,-0.1471786124466111,3,0,0.21325673537997888,7,0,0.1388437996570249,1,0,0.22707060664058806,5,0,0.15454365783006338
1680791200894669170,968432,1680791200894669170,,12,0,-0.46197003472016585,11,0,-0.39124154056628646,10,0,0.46286726681220736,9,0,0.39213877265832797,4,0,-0.21757100298017967,8,0,-0.1449327138023958,2,0,-0.2207765315240487,6,0,-0.14710438014905952,3,0,0.21478155806945864,7,0,0.14110940669446947,1,0,0.22356597643476972,5,0,0.15092768725698585
1680791200904669695,968433,1680791200904669695,,12,0,-0.46099112954760646,11,0,-0.3911610436864409,10,0,0.4615147611602982,9,0,0.39168467529913265,4,0,-0.21668450107655338,8,0,-0.14424032238871493,2,0,-0.21995326435113413,6,0,-0.1468047792444902,3,0,0.21491283469693093,7,0,0.141764349590287,1,0,0.22172493073075658,5,0,0.14928075204291813
1680791200914667604,968434,1680791200914667604,,12,0,-0.46047934742931396,11,0,-0.3921273772147742,10,0,0.46125846813335813,9,0,0.3929064979188184,4,0,-0.21605993902475468,8,0,-0.14412915746658037,2,0,-0.2190928295432747,6,0,-0.14624024673503985,3,0,0.21360347015147313,7,0,0.1407508873432383,1,0,0.22154929841655624,5,0,0.14961851685838193
1680791200924667558,968435,1680791200924667558,,12,0,-0.4599919909780777,11,0,-0.3928345364564037,10,0,0.46088695552254993,9,0,0.39372950100087595,4,0,-0.21550133086748555,8,0,-0.1440100904977036,2,0,-0.21830063261244606,6,0,-0.14569138264364942,3,0,0.2125953965842777,7,0,0.13998614661548106,1,0,0.2212065668956539,5,0,0.14971532652587197
1680791200934694942,968436,1680791200934694942,,12,0,-0.4602345757884592,11,0,-0.39394804090772456,10,0,0.46140840621032614,9,0,0.3951218713295915,4,0,-0.2172728221970298,8,0,-0.14901398377497826,2,0,-0.21085976804608714,6,0,-0.13534758146093562,3,0,0.20522126877149205,7,0,0.12970908218634053,1,0,0.2229113214716249,5,0,0.15465248304957335
1680791200944667022,968437,1680791200944667022,,12,0,-0.46070900980530327,11,0,-0.3952566403909067,10,0,0.4624904781644985,9,0,0.3970381087501019,4,0,-0.22115982250848745,8,0,-0.15907023247287774,2,0,-0.1965264609418633,6,0,-0.1150606791414695,3,0,0.19095426068970892,7,0,0.1094884788893151,1,0,0.22673202276064183,5,0,0.16464243272503212
1680791200954693545,968438,1680791200954693545,,12,0,-0.46050149650015315,11,0,-0.3962703549618441,10,0,0.4625674989290005,9,0,0.39833635739069145,4,0,-0.22233726202659876,8,0,-0.16314862715253356,2,0,-0.18991379338478895,6,0,-0.10615463679858753,3,0,0.18431767347605102,7,0,0.1005585168898496,1,0,0.2279333819353367,5,0,0.1687447470612715
1680791200964669373,968439,1680791200964669373,,12,0,-0.45974810620048,11,0,-0.39679295367842327,10,0,0.4617406218220319,9,0,0.39878546929997516,4,0,-0.22096217998807552,8,0,-0.16128950380137164,2,0,-0.1912424720871768,6,0,-0.10877710274275114,3,0,0.18558195794441004,7,0,0.10311658859998439,1,0,0.22662269413084227,5,0,0.16695001794413838
1680791200974668514,968440,1680791200974668514,,12,0,-0.45777714205901143,11,0,-0.39359237956959325,10,0,0.4599813344954413,9,0,0.39579657200602314,4,0,-0.21841493591556663,8,0,-0.15841668486432456,2,0,-0.18924352803455077,6,0,-0.10695979301689536,3,0,0.1834461520185258,7,0,0.10116241700087038,1,0,0.2242123119315916,5,0,0.16421406088034954
1680791200984672803,968441,1680791200984672803,,12,0,-0.4541589463644133,11,0,-0.3861903486633849,10,0,0.4568660925620976,9,0,0.3888974948610692,4,0,-0.21454443024164138,8,0,-0.1543989788261779,2,0,-0.1838257070869988,6,0,-0.10067134187223806,3,0,0.1778071090820295,7,0,0.09465274386726877,1,0,0.22056302824661067,5,0,0.16041757683114719
1680791200994668301,968442,1680791200994668301,,12,0,-0.45235686623798693,11,0,-0.3834742257502524,10,0,0.45528500757188034,9,0,0.3864023670841458,4,0,-0.2126091138689349,8,0,-0.1526965015302807,2,0,-0.18098276533773686,6,0,-0.09756248831565353,3,0,0.1748371500355072,7,0,0.09141687301342388,1,0,0.21875472917116454,5,0,0.15884211683251032
1680791201004667962,968443,1680791201004667962,,12,0,-0.452371014033875,11,0,-0.38543820645972465,10,0,0.45523495084331816,9,0,0.38830214326916784,4,0,-0.21260011435689352,8,0,-0.15327011244055638,2,0,-0.18078519587064878,6,0,-0.09773149185736064,3,0,0.17461479703551347,7,0,0.09156109302222533,1,0,0.21877051319202884,5,0,0.1594405112756917
1680791201014668888,968444,1680791201014668888,,12,0,-0.4541247917300094,11,0,-0.3854542836888508,10,0,0.456173675184662,9,0,0.3875031671435034,4,0,-0.2145499981331229,8,0,-0.15464803645152972,2,0,-0.184320823920558,6,0,-0.10067086228511532,3,0,0.17772674309939138,7,0,0.09407678146394868,1,0,0.22114407895428953,5,0,0.16124211727269636
1680791201024673057,968445,1680791201024673057,,12,0,-0.4573112798139285,11,0,-0.38300367450990613,10,0,0.45779821764387874,9,0,0.3834906123398564,4,0,-0.21842214588818443,8,0,-0.1567471178551016,2,0,-0.19163649480975217,6,0,-0.10644520126634012,3,0,0.18422210717708745,7,0,0.09903081363367543,1,0,0.2258365335208491,5,0,0.16416150548776626
1680791201034670105,968446,1680791201034670105,,12,0,-0.45837760253146403,11,0,-0.382277878275485,10,0,0.4582199927729916,9,0,0.38212026851701253,4,0,-0.2196956961336896,8,0,-0.15746433861520914,2,0,-0.19430248548296758,6,0,-0.10861883935938248,3,0,0.18653307894106536,7,0,0.10084943281748023,1,0,0.2274651026755919,5,0,0.16523374515711142
1680791201044670040,968447,1680791201044670040,,12,0,-0.4573136612476343,11,0,-0.38328893064266456,10,0,0.45742726519735544,9,0,0.3834025345923857,4,0,-0.2183866303971621,8,0,-0.15684121567316864,2,0,-0.192287445776774,6,0,-0.10714826166685196,3,0,0.18462436124586265,7,0,0.0994851771359406,1,0,0.22604971492807346,5,0,0.16450430020408
1680791201054669052,968448,1680791201054669052,,12,0,-0.45661217116923336,11,0,-0.38399282871286955,10,0,0.456844671280911,9,0,0.3842253288245472,4,0,-0.21721834354231745,8,0,-0.15590971806421147,2,0,-0.191434127503894,6,0,-0.10689472269489879,3,0,0.18379837746775413,7,0,0.09925897265875892,1,0,0.22485409357845731,5,0,0.16354546810035134
1680791201064669560,968449,1680791201064669560,,12,0,-0.45809172194151987,11,0,-0.38805014205344374,10,0,0.4577228222040402,9,0,0.38768124231596407,4,0,-0.22056693997079227,8,0,-0.15902481348607833,2,0,-0.19559045764040706,6,0,-0.11224804520857967,3,0,0.19006684659544876,7,0,0.10672443416362137,1,0,0.22609055101575057,5,0,0.16454842453103663
1680791201074690265,968450,1680791201074690265,,12,0,-0.46104891486642713,11,0,-0.39536603518504493,10,0,0.45953516150636947,9,0,0.39385228182498727,4,0,-0.22858554044375626,8,0,-0.16706362615694945,2,0,-0.20312524628338904,6,0,-0.12129692847828441,3,0,0.20189347841071678,7,0,0.12006516060561215,1,0,0.22981730831642852,5,0,0.1682953940296217
1680791201084666022,968451,1680791201084666022,,12,0,-0.4619891042515982,11,0,-0.3986884400479286,10,0,0.4600240180578822,9,0,0.39672335385421253,4,0,-0.23184111063456533,8,0,-0.1706732634016951,2,0,-0.2056657705054636,6,0,-0.12446462049586428,3,0,0.2062005666153445,7,0,0.12499941660574516,1,0,0.23130631452468445,5,0,0.17013846729181423
1680791201094667474,968452,1680791201094667474,,12,0,-0.46098525960614956,11,0,-0.3979565795162817,10,0,0.45923111131265826,9,0,0.3962024312227904,4,0,-0.22997603553060506,8,0,-0.16914088363847873,2,0,-0.20381536210455456,6,0,-0.12263097608182642,3,0,0.2035759339726859,7,0,0.12239154794995778,1,0,0.23021546366247372,5,0,0.1693803117703474
1680791201104669207,968453,1680791201104669207,,12,0,-0.4610560688289248,11,0,-0.39263598045397946,10,0,0.4594485477958178,9,0,0.39102845942087244,4,0,-0.23076780443832626,8,0,-0.16950425972096625,2,0,-0.20027481792968924,6,0,-0.11687138340910694,3,0,0.20160268695023395,7,0,0.11819925242965165,1,0,0.22943993541778154,5,0,0.16817639070042154
1680791201114670351,968454,1680791201114670351,,12,0,-0.461922522743734,11,0,-0.38233759289217556,10,0,0.4604042029409269,9,0,0.3808192730893684,4,0,-0.23424455076180928,8,0,-0.171845380241731,2,0,-0.19493056685418958,6,0,-0.1070318594546852,3,0,0.20016462284490943,7,0,0.11226591544540505,1,0,0.22901049477108942,5,0,0.16661132425101113
1680791201124674151,968455,1680791201124674151,,12,0,-0.4620621113074228,11,0,-0.3783000772168127,10,0,0.46058407930951617,9,0,0.37682204521890605,4,0,-0.2355103420663815,8,0,-0.17279466343424474,2,0,-0.19249390487021373,6,0,-0.10284889931970569,3,0,0.1993353669584843,7,0,0.10969036140797624,1,0,0.22866887997811092,5,0,0.16595320134597416
1680791201134667066,968456,1680791201134667066,,12,0,-0.4614861380378594,11,0,-0.3805153444855823,10,0,0.45999642022964565,9,0,0.37902562667736855,4,0,-0.23456307711655505,8,0,-0.1723364594515096,2,0,-0.19297835582646145,6,0,-0.10433781047148284,3,0,0.1991391427848058,7,0,0.11049859742982719,1,0,0.22840229015821067,5,0,0.16617567249316523
1680791201144672993,968457,1680791201144672993,,12,0,-0.4610958581152621,11,0,-0.3815962101019575,10,0,0.45960173651354963,9,0,0.380102088500245,4,0,-0.23405615050623887,8,0,-0.17215511285211235,2,0,-0.1929808506735342,6,0,-0.10482269314103769,3,0,0.1988619625068381,7,0,0.11070380497434158,1,0,0.22817503867293495,5,0,0.16627400101880843
1680791201154691089,968458,1680791201154691089,,12,0,-0.4599817691076923,11,0,-0.3796306992707003,10,0,0.4591223482112383,9,0,0.37877127837424635,4,0,-0.23094878697903926,8,0,-0.16899138741393938,2,0,-0.18907550503398995,6,0,-0.10075417311715701,3,0,0.19467064051859817,7,0,0.10634930860176522,1,0,0.22535365149443104,5,0,0.16339625192933116
1680791201164671636,968459,1680791201164671636,,12,0,-0.457726858978157,11,0,-0.37564289736209344,10,0,0.45811838180719566,9,0,0.3760344201911321,4,0,-0.22468949810655317,8,0,-0.1624544391348423,2,0,-0.18188053558778086,6,0,-0.09339194284696795,3,0,0.18673191560410088,7,0,0.09824332286328796,1,0,0.21983811809023315,5,0,0.1576030591185223
1680791201174668376,968460,1680791201174668376,,12,0,-0.45659659360962546,11,0,-0.3743064618245696,10,0,0.45748776467354935,9,0,0.3751976328884935,4,0,-0.22186780132619488,8,0,-0.1596264359753787,2,0,-0.17884100011088144,6,0,-0.09047212791326312,3,0,0.18335608728445746,7,0,0.09498721508683913,1,0,0.21735271415261886,5,0,0.1551113488018027
1680791201184667765,968461,1680791201184667765,,12,0,-0.4566627387275061,11,0,-0.37533660909662175,10,0,0.45733014428314306,9,0,0.3760040146522587,4,0,-0.22263454564082563,8,0,-0.1606292806345566,2,0,-0.17981236699845815,6,0,-0.0916856039331572,3,0,0.1844599198316671,7,0,0.09633315676636614,1,0,0.2179869928076167,5,0,0.15598172780134764
1680791201194666626,968462,1680791201194666626,,12,0,-0.45912997769646924,11,0,-0.3794830511412632,10,0,0.45961316014491715,9,0,0.3799662335897111,4,0,-0.22299734727768591,8,0,-0.1593256567932626,2,0,-0.18603529256499,6,0,-0.09981318936873414,3,0,0.19017811261090498,7,0,0.10395600941464912,1,0,0.21885452723177093,5,0,0.15518283674734762
1680791201204669438,968463,1680791201204669438,,12,0,-0.4637785952926918,11,0,-0.38657836500277115,10,0,0.4641020182593209,9,0,0.3869017879694003,4,0,-0.22286864072551082,8,0,-0.15565584576064131,2,0,-0.1974734982304493,6,0,-0.1148711587045306,3,0,0.2004804182940057,7,0,0.11787807876808701,1,0,0.21986172066195442,5,0,0.1526489256970849
1680791201214669029,968464,1680791201214669029,,12,0,-0.465552410844249,11,0,-0.3896841777439812,10,0,0.46581158459494304,9,0,0.38994335149467524,4,0,-0.2226321353452163,8,0,-0.15403228708649197,2,0,-0.20205506029798426,6,0,-0.12106323501263097,3,0,0.20460651904370236,7,0,0.1236146937583491,1,0,0.2200806765994982,5,0,0.15148082834077387
1680791201224667127,968465,1680791201224667127,,12,0,-0.46448451804103785,11,0,-0.3887529543579338,10,0,0.4647766799349883,9,0,0.3890451162518842,4,0,-0.2223402460347289,8,0,-0.15448484865326267,2,0,-0.19983985815399585,6,0,-0.11842454697878227,3,0,0.2026031561856073,7,0,0.1211878450103937,1,0,0.21957694800311744,5,0,0.1517215506216512
1680791201234671736,968466,1680791201234671736,,12,0,-0.4662690572446566,11,0,-0.387636505083441,10,0,0.46628269409368905,9,0,0.38765014193247344,4,0,-0.223872106074046,8,0,-0.1547190911592204,2,0,-0.20297061718902737,6,0,-0.12104856038017296,3,0,0.2056700791636088,7,0,0.12374802235475439,1,0,0.22117264409946458,5,0,0.15201962918463896
1680791201244667754,968467,1680791201244667754,,12,0,-0.47077993031504717,11,0,-0.3861304095709627,10,0,0.4702008002129796,9,0,0.3855512794688951,4,0,-0.22725452612398375,8,0,-0.15477088355164367,2,0,-0.2114419576068847,6,0,-0.12891376677183888,3,0,0.21380224093330943,7,0,0.13127405009826362,1,0,0.224894242797559,5,0,0.15241060022521893
1680791201254668202,968468,1680791201254668202,,12,0,-0.4725562971983682,11,0,-0.38559372802534786,10,0,0.47173198006955863,9,0,0.38476941089653827,4,0,-0.2285807989542393,8,0,-0.15474202352025315,2,0,-0.21495369057760547,6,0,-0.13225910976043634,3,0,0.21718116354314185,7,0,0.13448658272597272,1,0,0.22635332598870292,5,0,0.15251455055471677
1680791201264691233,968469,1680791201264691233,,12,0,-0.47153414125627957,11,0,-0.38610172875579696,10,0,0.47081191024577873,9,0,0.3853794977452961,4,0,-0.2277803051708488,8,0,-0.15461824188251208,2,0,-0.21338397335812503,6,0,-0.13098943737855004,3,0,0.21569444555467365,7,0,0.13329990957509866,1,0,0.22546983297430018,5,0,0.15230776968596346
1680791201274673019,968470,1680791201274673019,,12,0,-0.47097395674631454,11,0,-0.3864592666167314,10,0,0.47029012958231536,9,0,0.38577543945273224,4,0,-0.22733919905945862,8,0,-0.1545476910426269,2,0,-0.21260387775048548,6,0,-0.13041456089214237,3,0,0.214961530662624,7,0,0.1327722138042809,1,0,0.2249815461473201,5,0,0.15219003813048837
1680791201284670026,968471,1680791201284670026,,12,0,-0.4709172131750763,11,0,-0.3870735902852285,10,0,0.47006755198912553,9,0,0.3862239290992777,4,0,-0.23328171619026153,8,0,-0.1628862165393003,2,0,-0.2109029884886631,6,0,-0.12667668103939478,3,0,0.21483532006214437,7,0,0.13060901261287605,1,0,0.22934938461678026,5,0,0.15895388496581903
1680791201294668655,968472,1680791201294668655,,12,0,-0.4706604636730246,11,0,-0.387982571473479,10,0,0.46951194289035936,9,0,0.3868340506908137,4,0,-0.24519332124522994,8,0,-0.1796463898063724,2,0,-0.20723782068238703,6,0,-0.1188262362488719,3,0,0.2143223003979081,7,0,0.125910715964393,1,0,0.23810884152970888,5,0,0.17256191009085134
1680791201304668554,968473,1680791201304668554,,12,0,-0.47040325054799986,11,0,-0.38846823166327477,10,0,0.46913660654184336,9,0,0.38720158765711826,4,0,-0.2501846578202582,8,0,-0.18680362178655643,2,0,-0.20553108092429148,6,0,-0.11539020511953987,3,0,0.2139406580852403,7,0,0.12379978228048868,1,0,0.24177508065930944,5,0,0.17839404462560762
1680791201314667817,968474,1680791201314667817,,12,0,-0.4702358584286549,11,0,-0.38849917619717,10,0,0.46902238923351247,9,0,0.3872857070020276,4,0,-0.24830618470070073,8,0,-0.18433205060868313,2,0,-0.20596470562527994,6,0,-0.11654715112490971,3,0,0.2138585804754393,7,0,0.12444102597506904,1,0,0.24041230985054138,5,0,0.17643817575852377
1680791201324668978,968475,1680791201324668978,,12,0,-0.4704175828838905,11,0,-0.38754373618237054,10,0,0.4696828589483844,9,0,0.3868090122468644,4,0,-0.24712805863941506,8,0,-0.18264947748555102,2,0,-0.20475003348267734,6,0,-0.11518386282435215,3,0,0.21248423348399403,7,0,0.12291806282566885,1,0,0.23939385863809837,5,0,0.17491527748423433
1680791201334668561,968476,1680791201334668561,,12,0,-0.4708480518549502,11,0,-0.3854654142554264,10,0,0.47101508842057,9,0,0.3856324508210462,4,0,-0.24665862340372116,8,0,-0.181786877970889,2,0,-0.2018317138458958,6,0,-0.11122948075140991,3,0,0.20977540352909183,7,0,0.11917317043460594,1,0,0.23871493372052513,5,0,0.17384318828769296
1680791201344667823,968477,1680791201344667823,,12,0,-0.4709782372250458,11,0,-0.3846277711996327,10,0,0.47151564676964625,9,0,0.38516518074423317,4,0,-0.24668443910486312,8,0,-0.18174743977691646,2,0,-0.20062222149787012,6,0,-0.1095398501992882,3,0,0.2086666789034917,7,0,0.11758430760490977,1,0,0.23863998169924158,5,0,0.17370298237129492
1680791201354669247,968478,1680791201354669247,,12,0,-0.4708221870488983,11,0,-0.38501335390782687,10,0,0.47120223948146994,9,0,0.38539340634039854,4,0,-0.24722114714224463,8,0,-0.1825375254518105,2,0,-0.20114057430345517,6,0,-0.1101241566064227,3,0,0.2091675429278101,7,0,0.11815112523077766,1,0,0.2391941785178897,5,0,0.1745105568274556
1680791201364666167,968479,1680791201364666167,,12,0,-0.47072891872404177,11,0,-0.3851759848438535,10,0,0.4710450372909245,9,0,0.38549210341073625,4,0,-0.24768626344049186,8,0,-0.1832035918977491,2,0,-0.20133310700526183,6,0,-0.1102700833448203,3,0,0.20937402847265227,7,0,0.11831100481221074,1,0,0.23964534197310142,5,0,0.17516267043035866
1680791201374670404,968480,1680791201374670404,,12,0,-0.47154348502180005,11,0,-0.38404888820772287,10,0,0.47070389330686585,9,0,0.3832092964927887,4,0,-0.24784632365635206,8,0,-0.1834297093800131,2,0,-0.2020247328998307,6,0,-0.10989742585958985,3,0,0.2096213942989088,7,0,0.11749408725866799,1,0,0.24024966225727395,5,0,0.175833047980935
1680791201384666443,968481,1680791201384666443,,12,0,-0.4731746972095366,11,0,-0.3818194957233753,10,0,0.4699755777489442,9,0,0.37862037626278294,4,0,-0.247780347430196,8,0,-0.1833342254108663,2,0,-0.20363248260703287,6,0,-0.10955456511124106,3,0,0.2102841905675618,7,0,0.11620627307177,1,0,0.24112863946966706,5,0,0.17668251745033736
1680791201394668884,968482,1680791201394668884,,12,0,-0.47381871702620626,11,0,-0.3809300606477134,10,0,0.46962418073978696,9,0,0.3767355243612941,4,0,-0.24758493030907083,8,0,-0.18295322546751755,2,0,-0.20469324243975065,6,0,-0.11002239017538819,3,0,0.2109702094438833,7,0,0.11629935717952085,1,0,0.24130796330493817,5,0,0.1766762584633849
1680791201404668741,968483,1680791201404668741,,12,0,-0.47351523074064594,11,0,-0.38129488582558024,10,0,0.4697166913146097,9,0,0.377496346399544,4,0,-0.24732466012469564,8,0,-0.18234001897318872,2,0,-0.20515270445964756,6,0,-0.11118419134618882,3,0,0.21163115765419246,7,0,0.11766264454073372,1,0,0.2408462069301507,5,0,0.17586156577864379
1680791201414667597,968484,1680791201414667597,,12,0,-0.47417882158517227,11,0,-0.37824297163681364,10,0,0.4710761863357135,9,0,0.3751403363873549,4,0,-0.25170922843739196,8,0,-0.18436269076453965,2,0,-0.21023476651451758,6,0,-0.1165826399385494,3,0,0.21880764250091836,7,0,0.12515551592495017,1,0,0.24313635245099116,5,0,0.17578981477813888
1680791201424666884,968485,1680791201424666884,,12,0,-0.4757616497766777,11,0,-0.3718259950195004,10,0,0.47364231595708983,9,0,0.3697066611999126,4,0,-0.26072628369769413,8,0,-0.1890671598661943,2,0,-0.21985831353491186,6,0,-0.12613967966947173,3,0,0.23242706290883308,7,0,0.13870842904339295,1,0,0.2481575343237729,5,0,0.17649841049227308
1680791201434668414,968486,1680791201434668414,,12,0,-0.47642215517876196,11,0,-0.36914524318349007,10,0,0.47470116436955123,9,0,0.36742425237427934,4,0,-0.26464339543972254,8,0,-0.19121569131552318,2,0,-0.22394430127626405,6,0,-0.13016688247690172,3,0,0.23819392785090351,7,0,0.1444165090515412,1,0,0.2503937688650831,5,0,0.17696606474088372
1680791201444668487,968487,1680791201444668487,,12,0,-0.4761878667416536,11,0,-0.37016088509197853,10,0,0.4742875720099179,9,0,0.36826059036024283,4,0,-0.26350631207365266,8,0,-0.19083438817363024,2,0,-0.22252696452398238,6,0,-0.12867793216442902,3,0,0.23614196147949248,7,0,0.14229292911993913,1,0,0.2498913151181426,5,0,0.17721939121812014
1680791201454668952,968488,1680791201454668952,,12,0,-0.4761278899331073,11,0,-0.3705182054261511,10,0,0.47414652199608465,9,0,0.36853683748912847,4,0,-0.2632645471295372,8,0,-0.19089751803084928,2,0,-0.22209084350273545,6,0,-0.12816347957805904,3,0,0.23547354709286344,7,0,0.14154618316818704,1,0,0.24988184353940918,5,0,0.17751481444072129
1680791201464668196,968489,1680791201464668196,,12,0,-0.47657180776226227,11,0,-0.3678396075396415,10,0,0.4742950502952449,9,0,0.3655628500726241,4,0,-0.26099293999473666,8,0,-0.18784342747544944,2,0,-0.22252325109521445,6,0,-0.12779351807337377,3,0,0.23360731502481866,7,0,0.13887758200297798,1,0,0.24990887606513248,5,0,0.17675936354584523
1680791201474666933,968490,1680791201474666933,,12,0,-0.4773904292818887,11,0,-0.36291437268043963,10,0,0.4744923450280001,9,0,0.36001628842655103,4,0,-0.25573823935469847,8,0,-0.1812486731449068,2,0,-0.22268987133094417,6,0,-0.1263938123111786,3,0,0.22894265351151635,7,0,0.13264659449175079,1,0,0.24948545717412635,5,0,0.17499589096433463
1680791201484692249,968491,1680791201484692249,,12,0,-0.47776047457967163,11,0,-0.3608667546296118,10,0,0.4745849453466128,9,0,0.35769122539655296,4,0,-0.25370720577977085,8,0,-0.17868719047151896,2,0,-0.22284222420534,6,0,-0.12584903748957862,3,0,0.22708162848125446,7,0,0.13008844176549308,1,0,0.2494678015038563,5,0,0.1744477861956045
1680791201494669630,968492,1680791201494669630,,12,0,-0.4776966255206836,11,0,-0.361592579657506,10,0,0.47460299945234885,9,0,0.3584989535891713,4,0,-0.2550472166775865,8,0,-0.18023031794743186,2,0,-0.22314823325693955,6,0,-0.12634013119494722,3,0,0.22827571336211572,7,0,0.13146761130012338,1,0,0.24991973657241037,5,0,0.1751028378422557
1680791201504684743,968493,1680791201504684743,,12,0,-0.47770840578385754,11,0,-0.36183471125425065,10,0,0.4746301423050775,9,0,0.3587564477754706,4,0,-0.2558151555150703,8,0,-0.18106421551005508,2,0,-0.22345639707454146,6,0,-0.12668924270472187,3,0,0.228985483328627,7,0,0.13221832895880742,1,0,0.25028606926098473,5,0,0.17553512925596954
1680791201514707497,968494,1680791201514707497,,12,0,-0.47753527297862647,11,0,-0.3609514897509632,10,0,0.4743566672920882,9,0,0.3577728840644249,4,0,-0.25407132293320334,8,0,-0.17918082806706065,2,0,-0.22001685449065134,6,0,-0.12309926963425116,3,0,0.2273734871066031,7,0,0.13045590225020293,1,0,0.24671469031725152,5,0,0.17182419545110889
1680791201524675002,968495,1680791201524675002,,12,0,-0.47712412075569893,11,0,-0.35957203753554584,10,0,0.4738128030453816,9,0,0.3562607198252285,4,0,-0.25021292686522006,8,0,-0.17494103400691324,2,0,-0.21310025239456853,6,0,-0.11621054844343605,3,0,0.22429271622754632,7,0,0.12740301227641382,1,0,0.23902046303224228,5,0,0.16374857017393546
1680791201534669475,968496,1680791201534669475,,12,0,-0.47698006143188637,11,0,-0.3589875369466949,10,0,0.4736172819499587,9,0,0.35562475746476724,4,0,-0.24837495403072368,8,0,-0.17260455434500097,2,0,-0.21086130618636267,6,0,-0.11429782155186051,3,0,0.2237046378160054,7,0,0.12714115318150324,1,0,0.23553162240108094,5,0,0.15976122271535823
1680791201544670518,968497,1680791201544670518,,12,0,-0.47714332747688726,11,0,-0.35908324906166356,10,0,0.47378576854553844,9,0,0.35572569013031474,4,0,-0.2491517724888872,8,0,-0.1731905464773883,2,0,-0.2126939354525566,6,0,-0.11624835297670466,3,0,0.2249133939841625,7,0,0.12846781150831058,1,0,0.23693231395728132,5,0,0.1609710879457824
1680791201554669594,968498,1680791201554669594,,12,0,-0.48000813023529837,11,0,-0.3634496717861065,10,0,0.4761874475076487,9,0,0.3596289890584568,4,0,-0.24835933965873416,8,0,-0.17301495861607435,2,0,-0.21316467188545438,6,0,-0.11619188993016018,3,0,0.22317189912420252,7,0,0.1261991171689083,1,0,0.23835211241998602,5,0,0.16300773137732621
1680791201564689951,968499,1680791201564689951,,12,0,-0.4856073579502541,11,0,-0.37220762521677814,10,0,0.48086304176733485,9,0,0.3674633090338589,4,0,-0.24558120758321753,8,0,-0.1714056675149107,2,0,-0.21262135548227104,6,0,-0.11476563949451131,3,0,0.21882829534585027,7,0,0.12097257935809054,1,0,0.2393742677196383,5,0,0.16519872765133148
1680791201574669053,968500,1680791201574669053,,12,0,-0.4879678194384582,11,0,-0.3757909873896745,10,0,0.4828182596865634,9,0,0.3706414276377797,4,0,-0.24455759107310776,8,0,-0.17082916350802077,2,0,-0.21257960087000277,6,0,-0.11434654137687658,3,0,0.21722570327590224,7,0,0.11899264378277605,1,0,0.2399114886672083,5,0,0.1661830611021213
1680791201584670990,968501,1680791201584670990,,12,0,-0.4871102884591628,11,0,-0.37417757487948855,10,0,0.48206927323694837,9,0,0.3691365596572741,4,0,-0.24538440264103228,8,0,-0.17141936174553926,2,0,-0.21299811882413394,6,0,-0.11483001217954733,3,0,0.21832255391586042,7,0,0.12015444727127378,1,0,0.2400599675493058,5,0,0.16609492665381279
1680791201594669194,968502,1680791201594669194,,12,0,-0.488485327744413,11,0,-0.37306852250183786,10,0,0.48169016080465843,9,0,0.3662733555620833,4,0,-0.24636115779510548,8,0,-0.1723337150932008,2,0,-0.21273824909794092,6,0,-0.11330817498949877,3,0,0.22016667525641287,7,0,0.12073660114797072,1,0,0.23893273163663353,5,0,0.16490528893472886
1680791201604690355,968503,1680791201604690355,,12,0,-0.4921516079489725,11,0,-0.37257502460170155,10,0,0.48174610689034925,9,0,0.3621695235430783,4,0,-0.24749365911002535,8,0,-0.17358833901635906,2,0,-0.21176568428075024,6,0,-0.10974685681760397,3,0,0.22273981299688303,7,0,0.12072098553373677,1,0,0.23651953039389254,5,0,0.16261421030022627
1680791201614689625,968504,1680791201614689625,,12,0,-0.4937561319560367,11,0,-0.3722862135301471,10,0,0.48182908962441057,9,0,0.360359171198521,4,0,-0.24813967259499514,8,0,-0.17424906262071727,2,0,-0.21152503039481874,6,0,-0.10836960734040563,3,0,0.22398039227032918,7,0,0.12082496921591607,1,0,0.2356843107194847,5,0,0.16179370074520683
1680791201624669324,968505,1680791201624669324,,12,0,-0.49329202252789234,11,0,-0.372216881233359,10,0,0.4819245538451555,9,0,0.36084941255062214,4,0,-0.24828024632189605,8,0,-0.17430480675176432,2,0,-0.21202091989151833,6,0,-0.10918628288516412,3,0,0.22387696206705965,7,0,0.12104232506070543,1,0,0.23642420414635473,5,0,0.162448764576223
1680791201634689560,968506,1680791201634689560,,12,0,-0.49319398404223164,11,0,-0.372107263430773,10,0,0.4820234058149327,9,0,0.36093668520347405,4,0,-0.24849173428767315,8,0,-0.17444568863163853,2,0,-0.2123867244731808,6,0,-0.10961698399879496,3,0,0.22399231965575941,7,0,0.12122257918137358,1,0,0.23688613910509457,5,0,0.16284009344905995
1680791201644671399,968507,1680791201644671399,,12,0,-0.49185856273960804,11,0,-0.37332611746286615,10,0,0.48102661314809647,9,0,0.3624941678713546,4,0,-0.24414740959263231,8,0,-0.17018787536098734,2,0,-0.2141453184494327,6,0,-0.11280932646229458,3,0,0.22106916924477327,7,0,0.11973317725763519,1,0,0.23722355879729173,5,0,0.16326402456564676
1680791201654669171,968508,1680791201654669171,,12,0,-0.48894117256435665,11,0,-0.37607924582315566,10,0,0.4790058592533415,9,0,0.3661439325121405,4,0,-0.23512017163718077,8,0,-0.16139201846399612,2,0,-0.21744098675222098,6,0,-0.11921960585575393,3,0,0.21483095986634396,7,0,0.1166095789698769,1,0,0.2377301985230578,5,0,0.16400204534987314
1680791201664691077,968509,1680791201664691077,,12,0,-0.487810646092325,11,0,-0.3771141914632718,10,0,0.47825142354570144,9,0,0.36755496891664824,4,0,-0.23157094456194321,8,0,-0.15789148935794778,2,0,-0.21900971517307843,6,0,-0.12201731192638894,3,0,0.2124101724301621,7,0,0.11541776918347262,1,0,0.2381704873048595,5,0,0.16449103210086408
1680791201674668553,968510,1680791201674668553,,12,0,-0.4885519743172142,11,0,-0.37640343651726416,10,0,0.47877786109853715,9,0,0.3666293232985871,4,0,-0.23355518144497972,8,0,-0.15973565305621987,2,0,-0.21885405858178864,6,0,-0.12114450973483594,3,0,0.2138882105915026,7,0,0.11617866174454992,1,0,0.23852102943526576,5,0,0.1647015010465059
1680791201684671341,968511,1680791201684671341,,12,0,-0.49225323540119453,11,0,-0.37951103586186613,10,0,0.48160712195639604,9,0,0.36886492241706764,4,0,-0.23861076897008204,8,0,-0.16455159227180544,2,0,-0.22122784070880658,6,0,-0.12267914256756338,3,0,0.2193704304935688,7,0,0.12082173235232557,1,0,0.24046817918531982,5,0,0.1664090024870432
1680791201694690716,968512,1680791201694690716,,12,0,-0.49899500671815994,11,0,-0.38661943159951234,10,0,0.48683269016996994,9,0,0.37445711505132234,4,0,-0.24670001782882092,8,0,-0.17230866010194773,2,0,-0.2261192606540044,6,0,-0.12663064155750814,3,0,0.22882039805661636,7,0,0.1293317789601201,1,0,0.24399888042620899,5,0,0.16960752269933577
1680791201704669268,968513,1680791201704669268,,12,0,-0.5018925454791031,11,0,-0.3894746093280697,10,0,0.48906109961696254,9,0,0.37664316346592913,4,0,-0.2502115296966272,8,0,-0.1756397829950338,2,0,-0.22834033987696006,6,0,-0.12839061079772934,3,0,0.23291460244705847,7,0,0.13296487336782775,1,0,0.24563726712652878,5,0,0.1710655204249354
1680791201714666746,968514,1680791201714666746,,12,0,-0.500970447307006,11,0,-0.3880496522488485,10,0,0.48831491322620485,9,0,0.3753941181680474,4,0,-0.2491843805377906,8,0,-0.17456893324456274,2,0,-0.2279190087234314,6,0,-0.12797140993531175,3,0,0.23169443902111886,7,0,0.1317468402329992,1,0,0.24540895024010317,5,0,0.1707935029468753
1680791201724671053,968515,1680791201724671053,,12,0,-0.5007041895271215,11,0,-0.3873614524814193,10,0,0.4880771061353305,9,0,0.3747343690896283,4,0,-0.24893320562862228,8,0,-0.17424873962537885,2,0,-0.22795316503168003,6,0,-0.1279311877805262,3,0,0.23139386102345508,7,0,0.13137188377230125,1,0,0.24549250963684724,5,0,0.1708080436336038
1680791201734667571,968516,1680791201734667571,,12,0,-0.5005780367737006,11,0,-0.38500471583979423,10,0,0.4873035058047078,9,0,0.37173018487080145,4,0,-0.24682140191400706,8,0,-0.1727409532899365,2,0,-0.2284216335856313,6,0,-0.12682376039337323,3,0,0.2271286320270103,7,0,0.12553075883475223,1,0,0.24811440347262806,5,0,0.1740339548485575
1680791201744667196,968517,1680791201744667196,,12,0,-0.4999346108097701,11,0,-0.3802598644668058,10,0,0.4855133408610971,9,0,0.36583859451813283,4,0,-0.24194818833037623,8,0,-0.16915645338652874,2,0,-0.22883356727221543,6,0,-0.12425435898574431,3,0,0.2178588810426177,7,0,0.11327967275614657,1,0,0.252922874559974,5,0,0.18013113961612648
1680791201754669697,968518,1680791201754669697,,12,0,-0.4997046666612554,11,0,-0.3781281911745368,10,0,0.48478340651067836,9,0,0.36320693102395973,4,0,-0.23971513203143527,8,0,-0.16720203822816432,2,0,-0.22947217125820654,6,0,-0.12380908064708476,3,0,0.21441979480282405,7,0,0.10875670419170225,1,0,0.2547675084868178,5,0,0.1822544146835468
1680791201764670630,968519,1680791201764670630,,12,0,-0.5000465542902395,11,0,-0.37875216417353275,10,0,0.4852298755919622,9,0,0.36393548547525545,4,0,-0.24024440326547578,8,0,-0.1669789186844141,2,0,-0.23040663956382781,6,0,-0.12553712645689286,3,0,0.21699684408002431,7,0,0.11212733097308937,1,0,0.25365419874927925,5,0,0.1803887141682176
1680791201774667438,968520,1680791201774667438,,12,0,-0.5015976012014579,11,0,-0.37868447491372803,10,0,0.4865395474946551,9,0,0.36362642120692523,4,0,-0.2411543457029322,8,0,-0.16702095541032394,2,0,-0.23091005904145706,6,0,-0.12577750269659624,3,0,0.2191224445708524,7,0,0.11398988822599157,1,0,0.2529419601735369,5,0,0.1788085698809286
1680791201784668766,968521,1680791201784668766,,12,0,-0.5044120344216014,11,0,-0.3780758799714542,10,0,0.4887899413613565,9,0,0.3624537869112092,4,0,-0.2424478202382159,8,0,-0.16733941041803602,2,0,-0.23101894519363933,6,0,-0.12458913910541236,3,0,0.22078521317691716,7,0,0.11435540708869019,1,0,0.25268155225493805,5,0,0.1775731424347582
1680791201794670144,968522,1680791201794670144,,12,0,-0.5056838732363291,11,0,-0.37773255588304927,10,0,0.4897891016932673,9,0,0.3618377843399874,4,0,-0.24312093633182452,8,0,-0.1675711727172018,2,0,-0.23123427371362226,6,0,-0.12418804429929885,3,0,0.22160939169062926,7,0,0.11456316227630588,1,0,0.2527458183548175,5,0,0.17719605474019479
1680791201804666845,968523,1680791201804666845,,12,0,-0.5054172486239743,11,0,-0.3776762184723187,10,0,0.48952848808460403,9,0,0.3617874579329484,4,0,-0.24313968568494282,8,0,-0.16767772556468002,2,0,-0.23153550427826386,6,0,-0.12456724168377094,3,0,0.22160530912642806,7,0,0.11463704653193517,1,0,0.2530698808367786,5,0,0.17760792071651577
1680791201814667067,968524,1680791201814667067,,12,0,-0.5061686138548578,11,0,-0.37988861854251943,10,0,0.490225388823857,9,0,0.36394539351151867,4,0,-0.2420805370372947,8,0,-0.1670796621476893,2,0,-0.23018093222096214,6,0,-0.12328411305756735,3,0,0.22007130913705703,7,0,0.11317448997366224,1,0,0.2521901601211998,5,0,0.1771892852315944
1680791201824669071,968525,1680791201824669071,,12,0,-0.5080955408343785,11,0,-0.38446715388492303,10,0,0.49203401632233545,9,0,0.36840562937288,4,0,-0.24000445140830537,8,0,-0.1657924467281428,2,0,-0.22729284355674476,6,0,-0.12043951209384357,3,0,0.21710755078230473,7,0,0.11025421931940355,1,0,0.25018974418274537,5,0,0.17597773950258283
1680791201834669825,968526,1680791201834669825,,12,0,-0.5090460704284138,11,0,-0.38623808014385047,10,0,0.49288118928338714,9,0,0.3700731989988238,4,0,-0.23933882031956683,8,0,-0.16539923166040418,2,0,-0.22632436021816826,6,0,-0.11937837469435283,3,0,0.2160738397222982,7,0,0.10912785419848278,1,0,0.24958934081543688,5,0,0.17564975215627424
1680791201844697245,968527,1680791201844697245,,12,0,-0.5089803000524128,11,0,-0.3852481293865439,10,0,0.4927293578153658,9,0,0.36899718714949686,4,0,-0.24001756337288427,8,0,-0.16585033224540202,2,0,-0.22720842611787817,6,0,-0.12006861256385988,3,0,0.21692708638350405,7,0,0.10978727282948574,1,0,0.2502989031072584,5,0,0.17613167197977614
1680791201854668791,968528,1680791201854668791,,12,0,-0.5090934550304866,11,0,-0.38473053687503417,10,0,0.49275114082674026,9,0,0.36838822267128785,4,0,-0.24046970912554944,8,0,-0.16615791154838713,2,0,-0.2277686623649553,6,0,-0.12045142627494285,3,0,0.2174666001343114,7,0,0.11014936404429895,1,0,0.25077177135619333,5,0,0.17645997377903103
1680791201864668784,968529,1680791201864668784,,12,0,-0.5107465486332053,11,0,-0.3837851673345776,10,0,0.4938410914374906,9,0,0.36687971013886295,4,0,-0.24151284951832158,8,0,-0.16665857088103642,2,0,-0.22697018700548166,6,0,-0.11860399076492462,3,0,0.21861536418523442,7,0,0.1102491679446774,1,0,0.24986767233856882,5,0,0.17501339370128366
1680791201874669550,968530,1680791201874669550,,12,0,-0.5138576026582453,11,0,-0.3820689548304257,10,0,0.4959195168367898,9,0,0.3641308690089702,4,0,-0.24337461265156973,8,0,-0.16746298846275795,2,0,-0.2252158101514412,6,0,-0.11493913565971678,3,0,0.22077844460519047,7,0,0.11050177011346604,1,0,0.24781197819782047,5,0,0.1719003540090087
1680791201884669222,968531,1680791201884669222,,12,0,-0.5152878880039222,11,0,-0.38118443035675986,10,0,0.49686938425117333,9,0,0.36276592660401097,4,0,-0.24433499326796343,8,0,-0.1679172693326242,2,0,-0.2247115048629323,6,0,-0.11353090091091503,3,0,0.22187769931300277,7,0,0.11069709536098551,1,0,0.24716879881789294,5,0,0.17075107488255373
