time,field.header.seq,field.header.stamp,field.header.frame_id,field.time_stamp,field.sound_speed,field.temperature,field.pressure,field.range0,field.range1,field.range2,field.range3,field.velocity_beam0,field.velocity_beam1,field.velocity_beam2,field.velocity_beam3,field.fom_beam0,field.fom_beam1,field.fom_beam2,field.fom_beam3,field.dt1_beam0,field.dt1_beam1,field.dt1_beam2,field.dt1_beam3,field.dt2_beam0,field.dt2_beam1,field.dt2_beam2,field.dt2_beam3,field.time_beam0,field.time_beam1,field.time_beam2,field.time_beam3,field.velocity_xyzz0,field.velocity_xyzz1,field.velocity_xyzz2,field.velocity_xyzz3,field.fom_xyzz0,field.fom_xyzz1,field.fom_xyzz2,field.fom_xyzz3,field.dt1_xyzz0,field.dt1_xyzz1,field.dt1_xyzz2,field.dt1_xyzz3,field.dt2_xyzz0,field.dt2_xyzz1,field.dt2_xyzz2,field.dt2_xyzz3,field.time_xyzz0,field.time_xyzz1,field.time_xyzz2,field.time_xyzz3
1680791200176588497,31873,1680791200176588497,dvl,1680791190375699996,1500.0,11.96160888671875,55.22380065917969,1.445531964302063,1.2416167259216309,1.3435744047164917,1.445531964302063,0.125360906124115,-0.08953346312046051,-0.09496837109327316,0.12165016680955887,0.0002459757961332798,0.00020396357285790145,0.0001239929988514632,0.00012633876758627594,0.011519666761159897,0.011444666422903538,0.0117446668446064,0.011519666761159897,-0.14568233489990234,-0.14575733244419098,-0.14545734226703644,-0.14568233489990234,0.002453333232551813,0.0021533332765102386,0.0030533333774656057,0.002453333232551813,0.00830668956041336,0.3631511926651001,0.01673978567123413,0.017702195793390274,0.0003074847918469459,0.00030748473363928497,0.00015171976701822132,0.000132241053506732,0.0117446668446064,0.0117446668446064,0.0117446668446064,0.011519666761159897,-0.14545734226703644,-0.14545734226703644,-0.14545734226703644,-0.14568233489990234,0.0030533333774656057,0.0030533333774656057,0.0030533333774656057,0.002453333232551813
1680791200302337881,31874,1680791200302337881,dvl,1680791190500699996,1500.0,11.965789794921875,55.26839828491211,1.3435744047164917,1.3435744047164917,1.3435744047164917,1.445531964302063,0.12468469142913818,-0.09666121006011963,-0.10750029236078262,0.12143121659755707,0.00012144719948992133,0.00038603367283940315,5.974432497168891e-05,0.00016514670278411359,0.011819666251540184,0.011594666168093681,0.011519666761159897,0.0117446668446064,-0.14593133330345154,-0.14615632593631744,-0.14623132348060608,-0.14600633084774017,0.0030533333774656057,0.0030533333774656057,0.0021533332765102386,0.0030533333774656057,0.012496285140514374,0.37894943356513977,0.009464919567108154,0.013652823865413666,0.00037074307329021394,0.00037074298597872257,7.454727892763913e-05,0.00023142834834288806,0.011707166209816933,0.011707166209816933,0.011819666251540184,0.01166966650635004,-0.1460438221693039,-0.1460438221693039,-0.14593133330345154,-0.1460813283920288,0.0032783334609121084,0.0032783334609121084,0.0030533333774656057,0.003203333355486393
1680791200426882478,31875,1680791200426882478,dvl,1680791190625699996,1500.0,11.96429443359375,55.2505989074707,1.445531964302063,1.3435744047164917,1.3435744047164917,1.445531964302063,0.12479186058044434,-0.09939607232809067,-0.10605578124523163,0.1200031042098999,0.00021498369460459799,0.0002354565222049132,9.179492917610332e-05,0.00010042663780041039,0.011519666761159897,0.0117446668446064,0.011594666168093681,0.011594666168093681,-0.1458343267440796,-0.14560933411121368,-0.14575932919979095,-0.14575932919979095,0.002453333232551813,0.0030533333774656057,0.002453333232551813,0.002453333232551813,0.010271109640598297,0.37891989946365356,0.010319561697542667,0.011358261108398438,0.0002916822850238532,0.0002916822559200227,0.00012875249376520514,0.0001410913682775572,0.0117446668446064,0.0117446668446064,0.011557166464626789,0.0117446668446064,-0.14560933411121368,-0.14560933411121368,-0.14579683542251587,-0.14560933411121368,0.0030533333774656057,0.0030533333774656057,0.0025283333379775286,0.0030533333774656057
1680791200551586295,31876,1680791200551586295,dvl,1680791190750699996,1500.0,11.969879150390625,55.22890090942383,1.445531964302063,1.3435744047164917,1.3435744047164917,1.445531964302063,0.12038077414035797,-0.11464863270521164,-0.10974247008562088,0.11947748064994812,0.00021293392637744546,0.0001556894858367741,0.0002024187269853428,0.0001011312851915136,0.01166966650635004,0.011519666761159897,0.011519666761159897,0.01166966650635004,-0.14537933468818665,-0.14552932977676392,-0.14552932977676392,-0.14537933468818665,0.002453333232551813,0.0021533332765102386,0.002453333232551813,0.0027533331885933876,-0.0027121156454086304,0.3906818926334381,0.00585941644385457,0.002661578357219696,0.0002926787128672004,0.0002926786837633699,0.0001618170499568805,0.00010232840577373281,0.01166966650635004,0.01166966650635004,0.011594666168093681,0.01166966650635004,-0.14537933468818665,-0.14537933468818665,-0.14545433223247528,-0.14537933468818665,0.0027533331885933876,0.0027533331885933876,0.0026033332105726004,0.0027533331885933876
1680791200677151523,31877,1680791200677151523,dvl,1680791190875699996,1500.0,11.964019775390625,55.23310089111328,1.445531964302063,1.3435744047164917,1.3435744047164917,1.445531964302063,0.12533551454544067,-0.10230807960033417,-0.1129528284072876,0.12098821997642517,0.0002936157980002463,0.00013786261843051761,0.0002941959537565708,0.00020479035447351635,0.01166966650635004,0.011444666422903538,0.011444666422903538,0.011969666928052902,-0.14614233374595642,-0.14636732637882233,-0.14636732637882233,-0.14584232866764069,0.0027533331885933876,0.0021533332765102386,0.002453333232551813,0.0030533333774656057,0.013269223272800446,0.3884662687778473,0.006820198614150286,0.010296188294887543,0.00040715833893045783,0.0004071582807227969,0.00022893206914886832,0.000136071044835262,0.011857166886329651,0.011857166886329651,0.011632166802883148,0.011932166293263435,-0.14595483243465424,-0.14595483243465424,-0.14617982506752014,-0.1458798348903656,0.0032783332280814648,0.0032783332280814648,0.0028283330611884594,0.0031283332500606775
1680791200802877852,31878,1680791200802877852,dvl,1680791191000900030,1500.0,11.962066650390625,55.2515983581543,1.445531964302063,1.3435744047164917,1.3435744047164917,1.445531964302063,0.13011863827705383,-0.10546030104160309,-0.10748224705457687,0.1276971995830536,0.00023316522128880024,5.27308729942888e-05,0.00016545694961678237,0.000149723666254431,0.011731666512787342,0.011656666174530983,0.011731666512787342,0.011581666767597198,-0.14638632535934448,-0.14646132290363312,-0.14638632535934448,-0.14653632044792175,0.0030533333774656057,0.002453333232551813,0.0030533333774656057,0.002453333232551813,0.004405006766319275,0.3961714506149292,0.012467801570892334,0.012256614863872528,0.0002754444140009582,0.00027544438489712775,0.00015747291035950184,8.749367407290265e-05,0.011731666512787342,0.011731666512787342,0.011731666512787342,0.01161916647106409,-0.14638632535934448,-0.14638632535934448,-0.14638632535934448,-0.14649882912635803,0.0030533333774656057,0.0030533333774656057,0.0030533333774656057,0.0025283333379775286
1680791200926865299,31879,1680791200926865299,dvl,1680791191125699996,1500.0,11.968292236328125,55.244998931884766,1.445531964302063,1.3435744047164917,1.3435744047164917,1.445531964302063,0.13212165236473083,-0.10541833937168121,-0.10203900188207626,0.13181953132152557,0.00016154913464561105,4.7767283831490204e-05,0.00023313921701628715,0.00010182790720136836,0.011594666168093681,0.011519666761159897,0.01166966650635004,0.011594666168093681,-0.14588132500648499,-0.14595632255077362,-0.14580632746219635,-0.14588132500648499,0.002453333232551813,0.0021533332765102386,0.0030533333774656057,0.002453333232551813,-0.0019230172038078308,0.39669954776763916,0.016569096595048904,0.014551900327205658,0.0002570932556409389,0.0002570932265371084,0.00015622537466697395,6.199436029419303e-05,0.01166966650635004,0.01166966650635004,0.01166966650635004,0.011594666168093681,-0.14580632746219635,-0.14580632746219635,-0.14580632746219635,-0.14588132500648499,0.0030533333774656057,0.0030533333774656057,0.0030533333774656057,0.002453333232551813
1680791201052356572,31880,1680791201052356572,dvl,1680791191250699996,1500.0,11.96478271484375,55.23780059814453,1.445531964302063,1.3435744047164917,1.3435744047164917,1.445531964302063,0.13562056422233582,-0.0995543822646141,-0.10922515392303467,0.13237406313419342,7.712822844041511e-05,0.00010386807116447017,0.00012017324479529634,0.00019079260528087616,0.011444666422903538,0.011519666761159897,0.011444666422903538,0.011594666168093681,-0.14633633196353912,-0.1462613344192505,-0.14633633196353912,-0.14618633687496185,0.0021533332765102386,0.002453333232551813,0.0021533332765102386,0.0030533333774656057,0.011544689536094666,0.40124601125717163,0.014538212679326534,0.018089670687913895,0.00021862552966922522,0.00021862548601347953,7.864945655455813e-05,0.00011973547225352377,0.011594666168093681,0.011594666168093681,0.011444666422903538,0.011594666168093681,-0.14618633687496185,-0.14618633687496185,-0.14633633196353912,-0.14618633687496185,0.0030533333774656057,0.0030533333774656057,0.0021533332765102386,0.0030533333774656057
1680791201176524694,31881,1680791201176524694,dvl,1680791191375699996,1500.0,11.96600341796875,55.23590087890625,1.445531964302063,1.3435744047164917,1.3435744047164917,1.445531964302063,0.14451774954795837,-0.09988340735435486,-0.10151609033346176,0.14078496396541595,0.00013073350419290364,0.00012652401346713305,7.94673032942228e-05,0.00011080990952905267,0.011700666509568691,0.011550666764378548,0.011475666426122189,0.011475666426122189,-0.14528733491897583,-0.1454373300075531,-0.14551232755184174,-0.14551232755184174,0.0027533331885933876,0.002453333232551813,0.0021533332765102386,0.0021533332765102386,0.005203530192375183,0.4095902740955353,0.02368471585214138,0.022544261068105698,0.00019130564760416746,0.00019130563305225223,8.42654553707689e-05,9.27023429539986e-05,0.011700666509568691,0.011700666509568691,0.011700666509568691,0.011550666764378548,-0.14528733491897583,-0.14528733491897583,-0.14528733491897583,-0.1454373300075531,0.0027533331885933876,0.0027533331885933876,0.0027533331885933876,0.002453333232551813
1680791201302282715,31882,1680791201302282715,dvl,1680791191500699996,1500.0,11.962127685546875,55.24760055541992,1.445531964302063,1.3435744047164917,1.3435744047164917,1.445531964302063,0.14898131787776947,-0.0897962898015976,-0.09162452071905136,0.1437397301197052,0.00012242532102391124,0.0001448091643396765,0.00013253024371806532,0.00032627268228679895,0.011625666171312332,0.011475666426122189,0.011550666764378548,0.01177566684782505,-0.14585033059120178,-0.14600032567977905,-0.14592532813549042,-0.14570032060146332,0.002453333232551813,0.0021533332765102386,0.0021533332765102386,0.0033533331006765366,0.006620064377784729,0.39902254939079285,0.03159132972359657,0.029732726514339447,0.0003362581192050129,0.00033625809010118246,9.937417053151876e-05,0.00019675276416819543,0.01177566684782505,0.01177566684782505,0.011625666171312332,0.01177566684782505,-0.14570032060146332,-0.14570032060146332,-0.14585033059120178,-0.14570032060146332,0.0033533331006765366,0.0033533331006765366,0.002453333232551813,0.0033533331006765366
1680791201426941067,31883,1680791201426941067,dvl,1680791191625699996,1500.0,11.966888427734375,55.23440170288086,1.3435744047164917,1.3435744047164917,1.3435744047164917,1.445531964302063,0.14918862283229828,-0.08389544486999512,-0.09187684208154678,0.14818039536476135,9.611871792003512e-05,0.00015548740338999778,0.00023237639106810093,0.00010360864689573646,0.011625666171312332,0.011550666764378548,0.011700666509568691,0.011625666171312332,-0.14585033059120178,-0.14592532813549042,-0.14577533304691315,-0.14585033059120178,0.0027533331885933876,0.0021533332765102386,0.0027533331885933876,0.002453333232551813,0.008234255015850067,0.3981832265853882,0.03156653419137001,0.03543279320001602,0.00026377380709163845,0.0002637737197801471,0.0001385067153023556,0.00010298587585566565,0.011663166806101799,0.011663166806101799,0.011663166806101799,0.011625666171312332,-0.14581282436847687,-0.14581282436847687,-0.14581282436847687,-0.14585033059120178,0.0028283330611884594,0.0028283330611884594,0.0028283330611884594,0.002453333232551813
1680791201553512064,31884,1680791201553512064,dvl,1680791191750699996,1500.0,11.964874267578125,55.25310134887695,1.445531964302063,1.3435744047164917,1.3435744047164917,1.445531964302063,0.15647587180137634,-0.08067818731069565,-0.08457459509372711,0.14834639430046082,0.00017219051369465888,0.00026281457394361496,8.964991138782352e-05,0.00010143151303054765,0.011700666509568691,0.011850666254758835,0.011475666426122189,0.01177566684782505,-0.1473323404788971,-0.14718233048915863,-0.147557333111763,-0.14725732803344727,0.002453333232551813,0.0030533333774656057,0.002453333232551813,0.0027533331885933876,0.010785065591335297,0.3956071436405182,0.03960222750902176,0.03729759156703949,0.0002877386286854744,0.00028773859958164394,0.00010692447540350258,0.000155273184645921,0.011813166551291943,0.011813166551291943,0.01158816646784544,0.011850666254758835,-0.14721983671188354,-0.14721983671188354,-0.14744482934474945,-0.14718233048915863,0.0031283332500606775,0.0031283332500606775,0.002678333083167672,0.0030533333774656057
1680791201677058407,31885,1680791201677058407,dvl,1680791191875699996,1500.0,11.966461181640625,55.26029968261719,1.445531964302063,1.3435744047164917,1.3435744047164917,1.445531964302063,0.1593138873577118,-0.0785422995686531,-0.08483325690031052,0.1500883400440216,0.00026581657584756613,0.00011292675480945036,8.321943460032344e-05,0.0004469284613151103,0.011700666509568691,0.011550666764378548,0.011700666509568691,0.011925666593015194,-0.14583633840084076,-0.14598633348941803,-0.14583633840084076,-0.14561133086681366,0.0027533331885933876,0.0021533332765102386,0.002453333232551813,0.0030533333774656057,0.013726413249969482,0.39788657426834106,0.04102290794253349,0.03943498432636261,0.0004528967256192118,0.0004528966674115509,0.000153415443492122,0.0002540814457461238,0.011888166889548302,0.011888166889548302,0.011700666509568691,0.011925666593015194,-0.14564883708953857,-0.14564883708953857,-0.14583633840084076,-0.14561133086681366,0.003128333482891321,0.003128333482891321,0.0027533331885933876,0.0030533336102962494
1680791201802345477,31886,1680791201802345477,dvl,1680791192000900030,1500.0,11.962646484375,55.250999450683594,1.445531964302063,1.3435744047164917,1.3435744047164917,1.445531964302063,0.16227532923221588,-0.07786602526903152,-0.08178069442510605,0.1507706493139267,0.00022282495046965778,5.3283682063920423e-05,0.00012035484542138875,0.0001876729802461341,0.011731666512787342,0.011581666767597198,0.011656666174530983,0.011581666767597198,-0.145989328622818,-0.14613932371139526,-0.14606432616710663,-0.14613932371139526,0.0030533333774656057,0.0021533332765102386,0.0027533331885933876,0.002453333232551813,0.01364453136920929,0.3978148102760315,0.04433533549308777,0.04018381983041763,0.00026914302725344896,0.00026914296904578805,0.00013948739797342569,0.00010753061360446736,0.011731666512787342,0.011731666512787342,0.011731666512787342,0.011581666767597198,-0.145989328622818,-0.145989328622818,-0.145989328622818,-0.14613932371139526,0.0030533333774656057,0.0030533333774656057,0.0030533333774656057,0.002453333232551813
1680791201926838457,31887,1680791201926838457,dvl,1680791192125699996,1500.0,11.96319580078125,55.229000091552734,1.445531964302063,1.3435744047164917,1.3435744047164917,1.445531964302063,0.16717499494552612,-0.07248018682003021,-0.08172369748353958,0.15064619481563568,0.00014098326209932566,9.134236461250111e-05,0.00013347624917514622,0.0003030243387911469,0.011475666426122189,0.011475666426122189,0.011475666426122189,0.011850666254758835,-0.14587832987308502,-0.14587832987308502,-0.14587832987308502,-0.14550332725048065,0.0021533332765102386,0.0021533332765102386,0.0021533332765102386,0.0033533331006765366,0.022356092929840088,0.3972676396369934,0.04706539586186409,0.043083805590867996,0.00031222382676787674,0.0003122237976640463,0.00010693228978198022,0.00017444508557673544,0.011850666254758835,0.011850666254758835,0.011475666426122189,0.011850666254758835,-0.14550332725048065,-0.14550332725048065,-0.14587832987308502,-0.14550332725048065,0.0033533331006765366,0.0033533331006765366,0.0021533332765102386,0.0033533331006765366
1680791202051277452,31888,1680791202051277452,dvl,1680791192250699996,1500.0,11.966705322265625,55.24919891357422,1.445531964302063,1.3435744047164917,1.3435744047164917,1.445531964302063,0.16964314877986908,-0.06469223648309708,-0.08045385032892227,0.15295827388763428,0.00015743973199278116,0.0001298574061365798,9.838993719313294e-05,0.00016251386841759086,0.011400667019188404,0.011475666426122189,0.011700666509568691,0.011625666171312332,-0.14543433487415314,-0.1453593373298645,-0.1451343446969986,-0.14520934224128723,0.0018533332040533423,0.0021533332765102386,0.002453333232551813,0.002453333232551813,0.027966678142547607,0.393677294254303,0.04912423714995384,0.048650771379470825,0.00023459720250684768,0.00023459718795493245,0.00010225634468952194,0.00011465897114248946,0.011663166806101799,0.011663166806101799,0.011700666509568691,0.011625666171312332,-0.14517183601856232,-0.14517183601856232,-0.1451343446969986,-0.14520934224128723,0.002528333105146885,0.002528333105146885,0.002453333232551813,0.002453333232551813
1680791202176787580,31889,1680791202176787580,dvl,1680791192375699996,1500.0,11.96856689453125,55.25090026855469,1.3435744047164917,1.3435744047164917,1.3435744047164917,1.445531964302063,0.16850592195987701,-0.05925283581018448,-0.07806853204965591,0.15938448905944824,0.00035573530476540327,0.00017084737191908062,5.468317249324173e-05,0.0001648662000661716,0.011700666509568691,0.011700666509568691,0.011625666171312332,0.011700666509568691,-0.14577533304691315,-0.14577533304691315,-0.14585033059120178,-0.14577533304691315,0.0030533333774656057,0.0030533333774656057,0.0021533332765102386,0.0027533331885933876,0.02416825294494629,0.3915369510650635,0.049811676144599915,0.05519089847803116,0.000363090104656294,0.00036309007555246353,0.0001982355461223051,0.00013086358376313,0.011700666509568691,0.011700666509568691,0.011700666509568691,0.011700666509568691,-0.14577533304691315,-0.14577533304691315,-0.14577533304691315,-0.14577533304691315,0.0030533333774656057,0.0030533333774656057,0.0030533333774656057,0.0030533333774656057
1680791202301836758,31890,1680791202301836758,dvl,1680791192500699996,1500.0,11.966705322265625,55.265499114990234,1.445531964302063,1.3435744047164917,1.3435744047164917,1.445531964302063,0.16688172519207,-0.06589198857545853,-0.07204467058181763,0.159784734249115,0.00020229900837875903,0.00020181393483653665,0.0001017453832901083,0.00024594925343990326,0.011700666509568691,0.011550666764378548,0.011625666171312332,0.01177566684782505,-0.14553134143352509,-0.14568133652210236,-0.14560633897781372,-0.14545632898807526,0.0027533331885933876,0.0021533332765102386,0.002453333232551813,0.0030533333774656057,0.011807218194007874,0.39100396633148193,0.052234943956136703,0.05175211653113365,0.00032845075475052,0.00032845072564668953,0.00012472242815420032,0.00017535935330670327,0.01177566684782505,0.01177566684782505,0.011700666509568691,0.01177566684782505,-0.14545632898807526,-0.14545632898807526,-0.14553134143352509,-0.14545632898807526,0.0030533333774656057,0.0030533333774656057,0.0027533331885933876,0.0030533333774656057
1680791202427026508,31891,1680791202427026508,dvl,1680791192625699996,1500.0,11.967529296875,55.24580001831055,1.445531964302063,1.3435744047164917,1.3435744047164917,1.445531964302063,0.16680178046226501,-0.06729533523321152,-0.07958874851465225,0.15788404643535614,0.00018872536020353436,0.0002261642221128568,0.00011752236605389044,0.0004347518552094698,0.011700666509568691,0.011550666764378548,0.011550666764378548,0.011550666764378548,-0.14592833817005157,-0.14607833325862885,-0.14607833325862885,-0.14607833325862885,0.0030533333774656057,0.0021533332765102386,0.002453333232551813,0.002453333232551813,0.01851700246334076,0.39687812328338623,0.04803573712706566,0.04993099346756935,0.00045236412552185357,0.00045236406731419265,0.0001224540319526568,0.0002701132034417242,0.011700666509568691,0.011700666509568691,0.011700666509568691,0.011550666764378548,-0.14592833817005157,-0.14592833817005157,-0.14592833817005157,-0.14607833325862885,0.0030533333774656057,0.0030533333774656057,0.0030533333774656057,0.002453333232551813
1680791202552387917,31892,1680791202552387917,dvl,1680791192750699996,1500.0,11.963623046875,55.2223014831543,1.445531964302063,1.3435744047164917,1.3435744047164917,1.445531964302063,0.1645265817642212,-0.06825380772352219,-0.07771065831184387,0.1523921638727188,0.0003140938642900437,0.00013452436542138457,0.00033829198218882084,0.00023728203086648136,0.011475666426122189,0.011400667019188404,0.011700666509568691,0.011850666254758835,-0.14630533754825592,-0.14638033509254456,-0.14608034491539001,-0.14593033492565155,0.002453333232551813,0.0018533332040533423,0.0027533331885933876,0.0033533331006765366,0.018824636936187744,0.38956838846206665,0.04781701788306236,0.046375662088394165,0.0004515923501458019,0.000451592291938141,0.0002542560105212033,0.00015034231182653457,0.011850666254758835,0.011850666254758835,0.011663166806101799,0.011850666254758835,-0.14593033492565155,-0.14593033492565155,-0.14611783623695374,-0.14593033492565155,0.0033533331006765366,0.0033533331006765366,0.0028283330611884594,0.0033533331006765366
1680791202677569149,31893,1680791202677569149,dvl,1680791192875699996,1500.0,11.964508056640625,55.241600036621094,1.3435744047164917,1.3435744047164917,1.3435744047164917,1.445531964302063,0.1558486670255661,-0.06734953820705414,-0.07639210671186447,0.14910030364990234,0.00030947456252761185,0.00014922642731107771,1.7510576071799733e-05,0.0001685497263679281,0.011700666509568691,0.011400667019188404,0.011475666426122189,0.011625666171312332,-0.1465083360671997,-0.14680832624435425,-0.1467333287000656,-0.14658333361148834,0.0033533331006765366,0.0021533332765102386,0.0021533332765102386,0.0027533331885933876,0.013923302292823792,0.3776164650917053,0.043763577938079834,0.04505966231226921,0.0003225569671485573,0.0003225569089408964,0.00017072702758014202,0.00012408055772539228,0.011700666509568691,0.011700666509568691,0.011700666509568691,0.011625666171312332,-0.1465083360671997,-0.1465083360671997,-0.1465083360671997,-0.14658333361148834,0.0033533331006765366,0.0033533331006765366,0.0033533331006765366,0.0027533331885933876
1680791202802901165,31894,1680791202802901165,dvl,1680791193000900030,1500.0,11.96282958984375,55.245399475097656,1.3435744047164917,1.3435744047164917,1.3435744047164917,1.445531964302063,0.15945640206336975,-0.06855879724025726,-0.082843117415905,0.14828118681907654,0.00019046291708946228,0.0002145510952686891,0.00023064894776325673,6.724356353515759e-05,0.011731666512787342,0.011581666767597198,0.011656666174530983,0.011581666767597198,-0.1465083360671997,-0.14665833115577698,-0.14658333361148834,-0.14665833115577698,0.0030533333774656057,0.002453333232551813,0.0027533331885933876,0.002453333232551813,0.022074654698371887,0.38642334938049316,0.042197540402412415,0.04394165799021721,0.00031505798688158393,0.00031505795777775347,0.00016475330630782992,0.00012392907228786498,0.011731666512787342,0.011731666512787342,0.011731666512787342,0.011581666767597198,-0.1465083360671997,-0.1465083360671997,-0.1465083360671997,-0.14665833115577698,0.0030533333774656057,0.0030533333774656057,0.0030533333774656057,0.002453333232551813
1680791202927384443,31895,1680791202927384443,dvl,1680791193125699996,1500.0,11.96087646484375,55.217201232910156,1.445531964302063,1.2416167259216309,1.3435744047164917,1.445531964302063,0.16009072959423065,-0.07190723717212677,-0.08319181948900223,0.1498204469680786,0.0004239611735101789,0.00024545739870518446,0.0003840830468107015,0.0002942886494565755,0.011700666509568691,0.011625666171312332,0.012000666931271553,0.01177566684782505,-0.14617234468460083,-0.14624734222888947,-0.1458723396062851,-0.146097332239151,0.0030533333774656057,0.0027533331885933876,0.0030533333774656057,0.0030533333774656057,0.018796995282173157,0.39135831594467163,0.04235486313700676,0.04294446483254433,0.000579828629270196,0.0005798285128548741,0.00031508776010014117,0.00021122269390616566,0.011850666254758835,0.011850666254758835,0.011850666254758835,0.01177566684782505,-0.14602233469486237,-0.14602233469486237,-0.14602233469486237,-0.146097332239151,0.00335333333350718,0.00335333333350718,0.00335333333350718,0.0030533333774656057
1680791203052416161,31896,1680791203052416161,dvl,1680791193250699996,1500.0,11.96685791015625,55.26340103149414,1.445531964302063,1.3435744047164917,1.3435744047164917,1.445531964302063,0.15634332597255707,-0.07140275835990906,-0.08513176441192627,0.1482049971818924,0.00021596178703475744,8.621446613688022e-05,0.00010029354598373175,0.00021563703194260597,0.011625666171312332,0.011475666426122189,0.011625666171312332,0.01177566684782505,-0.14612533152103424,-0.1462753266096115,-0.14612533152103424,-0.14597532153129578,0.0027533331885933876,0.0021533332765102386,0.002453333232551813,0.0030533333774656057,0.019054405391216278,0.38805368542671204,0.0392223484814167,0.04233211278915405,0.000279920466709882,0.00027992043760605156,0.00013114996545482427,0.00012800305557902902,0.01177566684782505,0.01177566684782505,0.011625666171312332,0.01177566684782505,-0.14597532153129578,-0.14597532153129578,-0.14612533152103424,-0.14597532153129578,0.0030533333774656057,0.0030533333774656057,0.0027533331885933876,0.0030533333774656057
1680791203178887005,31897,1680791203178887005,dvl,1680791193375699996,1500.0,11.96563720703125,55.23149871826172,1.445531964302063,1.3435744047164917,1.3435744047164917,1.445531964302063,0.16047130525112152,-0.07353852689266205,-0.07600446790456772,0.14759758114814758,0.00012371488264761865,0.00010196931543760002,0.00021341495448723435,0.00021010119235143065,0.011550666764378548,0.011475666426122189,0.011700666509568691,0.011700666509568691,-0.14787833392620087,-0.1479533314704895,-0.1477283388376236,-0.1477283388376236,0.002453333232551813,0.0021533332765102386,0.0030533333774656057,0.0027533331885933876,0.013556152582168579,0.38512349128723145,0.04652317240834236,0.04082012176513672,0.0002858945226762444,0.0002858944935724139,0.00013586829300038517,0.00012872253137174994,0.011700666509568691,0.011700666509568691,0.011700666509568691,0.011700666509568691,-0.1477283388376236,-0.1477283388376236,-0.1477283388376236,-0.1477283388376236,0.0030533333774656057,0.0030533333774656057,0.0030533333774656057,0.0027533331885933876
1680791203302646158,31898,1680791203302646158,dvl,1680791193500699996,1500.0,11.9674072265625,55.25830078125,1.3435744047164917,1.3435744047164917,1.3435744047164917,1.445531964302063,0.15551918745040894,-0.0669180303812027,-0.08153990656137466,0.1499442160129547,0.00013029894034843892,0.00011347315739840269,8.492870256304741e-05,0.00011387852282496169,0.011550666764378548,0.011475666426122189,0.011625666171312332,0.011550666764378548,-0.14644433557987213,-0.14651933312416077,-0.1463693380355835,-0.14644433557987213,0.002453333232551813,0.0021533332765102386,0.0027533331885933876,0.002453333232551813,0.017638474702835083,0.3820245862007141,0.040746767073869705,0.04576265066862106,0.0001882315700640902,0.00018823154096025974,8.566578617319465e-05,8.860941306920722e-05,0.011625666171312332,0.011625666171312332,0.011625666171312332,0.011550666764378548,-0.1463693380355835,-0.1463693380355835,-0.1463693380355835,-0.14644433557987213,0.0027533331885933876,0.0027533331885933876,0.0027533331885933876,0.002453333232551813
1680791203426903957,31899,1680791203426903957,dvl,1680791193625699996,1500.0,11.96661376953125,55.25740051269531,1.445531964302063,1.3435744047164917,1.3435744047164917,1.445531964302063,0.15430910885334015,-0.07292471826076508,-0.07732333987951279,0.1484462171792984,0.00024169286189135164,0.00017517255037091672,0.00019198159861844033,0.0001843958889367059,0.011550666764378548,0.011475666426122189,0.011700666509568691,0.01177566684782505,-0.14592532813549042,-0.14600032567977905,-0.14577533304691315,-0.14570032060146332,0.002453333232551813,0.0021533332765102386,0.0027533331885933876,0.0030533333774656057,0.009276144206523895,0.38123804330825806,0.04240270331501961,0.04162620007991791,0.00033668483956716955,0.0003366848104633391,0.00017000695515889674,0.00014018623915035278,0.01177566684782505,0.01177566684782505,0.011700666509568691,0.01177566684782505,-0.14570032060146332,-0.14570032060146332,-0.14577533304691315,-0.14570032060146332,0.0030533333774656057,0.0030533333774656057,0.0027533331885933876,0.0030533333774656057
1680791203552387488,31900,1680791203552387488,dvl,1680791193750699996,1500.0,11.965576171875,55.21889877319336,1.3435744047164917,1.3435744047164917,1.3435744047164917,1.445531964302063,0.15742775797843933,-0.06306114792823792,-0.07404639571905136,0.14229260385036469,0.0004851104458793998,0.0001926303666550666,0.00016043639334384352,0.00019795174011960626,0.011550666764378548,0.011625666171312332,0.011475666426122189,0.011700666509568691,-0.1463223397731781,-0.14624734222888947,-0.14639733731746674,-0.14617234468460083,0.002453333232551813,0.0027533331885933876,0.0021533332765102386,0.0030533333774656057,0.02259925752878189,0.36764803528785706,0.045925308018922806,0.043671056628227234,0.000489245867356658,0.0004892458091489971,0.0002814254257827997,0.00015224171511363238,0.011700666509568691,0.011700666509568691,0.011550666764378548,0.011700666509568691,-0.14617234468460083,-0.14617234468460083,-0.1463223397731781,-0.14617234468460083,0.0030533333774656057,0.0030533333774656057,0.002453333232551813,0.0030533333774656057
1680791203677025716,31901,1680791203677025716,dvl,1680791193875699996,1500.0,11.9639892578125,55.235198974609375,1.445531964302063,1.3435744047164917,1.3435744047164917,1.445531964302063,0.158309206366539,-0.06648597866296768,-0.07839393615722656,0.14469845592975616,0.00012227358820382506,0.00011093317152699456,0.00011035661736968905,5.8343197451904416e-05,0.011700666509568691,0.011550666764378548,0.011550666764378548,0.011625666171312332,-0.1459893435239792,-0.14613933861255646,-0.14613933861255646,-0.14606434106826782,0.0030533333774656057,0.002453333232551813,0.0021533332765102386,0.002453333232551813,0.022108547389507294,0.37695443630218506,0.04401622712612152,0.04310942068696022,0.0001742591557558626,0.00017425912665203214,9.072007378563285e-05,6.908526120241731e-05,0.011700666509568691,0.011700666509568691,0.011700666509568691,0.01158816646784544,-0.1459893435239792,-0.1459893435239792,-0.1459893435239792,-0.14610183238983154,0.0030533333774656057,0.0030533333774656057,0.0030533333774656057,0.0025283333379775286
1680791203801165771,31902,1680791203801165771,dvl,1680791194000999927,1500.0,11.9586181640625,55.2505989074707,1.445531964302063,1.2416167259216309,1.3435744047164917,1.445531964302063,0.15934240818023682,-0.05781102180480957,-0.07307501137256622,0.1468246728181839,0.00021461401775013655,9.727104043122381e-05,0.0004905620589852333,0.000234030929277651,0.01161266677081585,0.01153766643255949,0.012437666766345501,0.011687666177749634,-0.144979327917099,-0.14505432546138763,-0.14415432512760162,-0.14490433037281036,0.002453333232551813,0.0018533332040533423,0.0030533333774656057,0.0027533331885933876,0.02399764209985733,0.36783990263938904,0.0475148931145668,0.04906284064054489,0.0004990671295672655,0.0004990670131519437,0.0002949203772004694,0.00013969220162834972,0.01213766634464264,0.01213766634464264,0.012175166979432106,0.011687666177749634,-0.14445433020591736,-0.14445433020591736,-0.14441682398319244,-0.14490433037281036,0.0036533332895487547,0.0036533332895487547,0.003578333416953683,0.0027533331885933876
1680791203926396139,31903,1680791203926396139,dvl,1680791194125699996,1500.0,11.96661376953125,55.24250030517578,1.445531964302063,1.3435744047164917,1.3435744047164917,1.445531964302063,0.15738753974437714,-0.052704621106386185,-0.06925711780786514,0.14215995371341705,0.00016314623644575477,0.00014087613089941442,0.0002587256603874266,0.00011703484778990969,0.011550666764378548,0.011700666509568691,0.01177566684782505,0.011625666171312332,-0.14555934071540833,-0.14540934562683105,-0.14533433318138123,-0.1454843431711197,0.002453333232551813,0.0027533331885933876,0.0027533331885933876,0.002453333232551813,0.027340486645698547,0.3547646701335907,0.04854102432727814,0.04930628836154938,0.0003002576413564384,0.00030025761225260794,0.00016846829385031015,0.00010094818571815267,0.011738166213035583,0.011738166213035583,0.011738166213035583,0.011700666509568691,-0.14537183940410614,-0.14537183940410614,-0.14537183940410614,-0.14540934562683105,0.002828333294019103,0.002828333294019103,0.002828333294019103,0.0027533331885933876
1680791204052111302,31904,1680791204052111302,dvl,1680791194250699996,1500.0,11.966278076171875,55.23830032348633,1.445531964302063,1.3435744047164917,1.3435744047164917,1.445531964302063,0.15901072323322296,-0.054803695529699326,-0.06869714707136154,0.1435299813747406,0.00027821797993965447,0.0004584936541505158,2.0779967599082738e-05,0.00023499084636569023,0.011550666764378548,0.011925666593015194,0.011400667019188404,0.011700666509568691,-0.14601732790470123,-0.14564232528209686,-0.1461673229932785,-0.14586733281612396,0.002453333232551813,0.0033533331006765366,0.0015533332480117679,0.0030533333774656057,0.025322221219539642,0.3585754334926605,0.049743473529815674,0.04890444874763489,0.0004926066030748188,0.0004926065448671579,0.00015366551815532148,0.00028397285495884717,0.011888166889548302,0.011888166889548302,0.011550666764378548,0.011888166889548302,-0.14567983150482178,-0.14567983150482178,-0.14601732790470123,-0.14567983150482178,0.003428333206102252,0.003428333206102252,0.002453333232551813,0.003428333206102252
1680791204176740910,31905,1680791204176740910,dvl,1680791194375699996,1500.0,11.96685791015625,55.24639892578125,1.445531964302063,1.3435744047164917,1.3435744047164917,1.445531964302063,0.16159255802631378,-0.04777655750513077,-0.06430241465568542,0.1477217674255371,0.0001778842997737229,6.191248394316062e-05,0.00019631993200164288,0.0003634550957940519,0.011700666509568691,0.011400667019188404,0.011625666171312332,0.011850666254758835,-0.1456843465566635,-0.14598433673381805,-0.14575934410095215,-0.14553433656692505,0.0027533331885933876,0.0018533332040533423,0.0027533331885933876,0.0033533331006765366,0.026176095008850098,0.3546651303768158,0.053586073219776154,0.05508813634514809,0.0003818589902948588,0.0003818589320871979,0.00014591611397918314,0.0002032160700764507,0.011850666254758835,0.011850666254758835,0.011663166806101799,0.011850666254758835,-0.14553433656692505,-0.14553433656692505,-0.14572183787822723,-0.14553433656692505,0.0033533331006765366,0.0033533331006765366,0.0028283330611884594,0.0033533331006765366
1680791204302034581,31906,1680791204302034581,dvl,1680791194500699996,1500.0,11.966705322265625,55.252601623535156,1.445531964302063,1.3435744047164917,1.2416167259216309,1.445531964302063,0.16170023381710052,-0.047855257987976074,-0.057957425713539124,0.1421596109867096,0.00011636447015916929,0.00017203697643708438,7.507352711400017e-05,0.0002046818408416584,0.011850666254758835,0.011700666509568691,0.011550666764378548,0.011700666509568691,-0.14553433656692505,-0.1456843465566635,-0.14583434164524078,-0.1456843465566635,0.0027533331885933876,0.0030533333774656057,0.0021533332765102386,0.0027533331885933876,0.025525115430355072,0.34480050206184387,0.05714011192321777,0.051978982985019684,0.00025315393577329814,0.0002531539066694677,7.627292507095262e-05,0.00014737466699443758,0.011700666509568691,0.011700666509568691,0.011850666254758835,0.011700666509568691,-0.1456843465566635,-0.1456843465566635,-0.14553433656692505,-0.1456843465566635,0.0030533333774656057,0.0030533333774656057,0.0027533334214240313,0.0030533333774656057
1680791204427036537,31907,1680791204427036537,dvl,1680791194625699996,1500.0,11.968017578125,55.2401008605957,1.445531964302063,1.2416167259216309,1.2416167259216309,1.445531964302063,0.16181573271751404,-0.04182390496134758,-0.06023859977722168,0.14374756813049316,0.00019717116083484143,0.00015477182751055807,0.00012569835234899074,0.00010309740900993347,0.011475666426122189,0.011475666426122189,0.011625666171312332,0.011625666171312332,-0.14603133499622345,-0.14603133499622345,-0.14588133990764618,-0.14588133990764618,0.0021533332765102386,0.0021533332765102386,0.0027533331885933876,0.0027533331885933876,0.03127846121788025,0.34308773279190063,0.055947285145521164,0.05617862194776535,0.00025151934823952615,0.0002515193191356957,0.00012879045971203595,0.00010250140621792525,0.011625666171312332,0.011625666171312332,0.011625666171312332,0.011625666171312332,-0.14588133990764618,-0.14588133990764618,-0.14588133990764618,-0.14588133990764618,0.0027533331885933876,0.0027533331885933876,0.0027533331885933876,0.0027533331885933876
1680791204552060496,31908,1680791204552060496,dvl,1680791194750699996,1500.0,11.96710205078125,55.242000579833984,1.445531964302063,1.2416167259216309,1.3435744047164917,1.445531964302063,0.15670239925384521,-0.05060876905918121,-0.06001129001379013,0.14224016666412354,0.00020744897483382374,0.0004527949495241046,0.00017978540563490242,0.00022243692365009338,0.011625666171312332,0.011400667019188404,0.011550666764378548,0.011550666764378548,-0.14588133990764618,-0.14610633254051208,-0.14595633745193481,-0.14595633745193481,0.0027533331885933876,0.0021533332765102386,0.0021533332765102386,0.002453333232551813,0.020662471652030945,0.34469982981681824,0.05325613543391228,0.05050570145249367,0.0004828881938010454,0.0004828881355933845,0.000151198502862826,0.00027806166326627135,0.011625666171312332,0.011625666171312332,0.011625666171312332,0.011550666764378548,-0.14588133990764618,-0.14588133990764618,-0.14588133990764618,-0.14595633745193481,0.0027533331885933876,0.0027533331885933876,0.0027533331885933876,0.002453333232551813
1680791204676938663,31909,1680791204676938663,dvl,1680791194875699996,1500.0,11.963409423828125,55.24679946899414,1.445531964302063,1.2416167259216309,1.2416167259216309,1.445531964302063,0.15304820239543915,-0.04959085211157799,-0.05416182056069374,0.1441221386194229,9.160047193290666e-05,3.963201379519887e-05,0.0002570468932390213,0.0001568050793139264,0.011850666254758835,0.011550666764378548,0.011625666171312332,0.011475666426122189,-0.14562532305717468,-0.14592532813549042,-0.14585033059120178,-0.14600032567977905,0.0027533331885933876,0.0021533332765102386,0.0027533331885933876,0.0021533332765102386,0.011925317347049713,0.33741453289985657,0.05446526035666466,0.05210406705737114,0.00026716283173300326,0.00026716277352534235,0.00015029881615191698,8.914616773836315e-05,0.011738166213035583,0.011738166213035583,0.011738166213035583,0.01151316612958908,-0.14573782682418823,-0.14573782682418823,-0.14573782682418823,-0.14596283435821533,0.0029783332720398903,0.0029783332720398903,0.0029783332720398903,0.0022283331491053104
1680791204803682326,31910,1680791204803682326,dvl,1680791195000999927,1500.0,11.964874267578125,55.24300003051758,1.445531964302063,1.2416167259216309,1.2416167259216309,1.445531964302063,0.14542968571186066,-0.046014100313186646,-0.05439942330121994,0.1388932764530182,0.00030448779580183327,0.00012334367784205824,5.419267472461797e-05,0.00013345552724786103,0.011837666854262352,0.01153766643255949,0.01161266677081585,0.011687666177749634,-0.1473173350095749,-0.14761732518672943,-0.1475423276424408,-0.14746733009815216,0.0027533331885933876,0.0021533332765102386,0.0021533332765102386,0.0027533331885933876,0.01310139149427414,0.3237948417663574,0.05013822019100189,0.05119345709681511,0.00030211941339075565,0.0003021193842869252,0.00017034326447173953,0.00010016387386713177,0.011762666516005993,0.011762666516005993,0.011837666854262352,0.011687666177749634,-0.14739233255386353,-0.14739233255386353,-0.1473173350095749,-0.14746733009815216,0.002903333166614175,0.002903333166614175,0.0027533331885933876,0.0027533331885933876
1680791204926666104,31911,1680791204926666104,dvl,1680791195125699996,1500.0,11.96624755859375,55.27259826660156,1.445531964302063,1.2416167259216309,1.2416167259216309,1.445531964302063,0.14131465554237366,-0.052176523953676224,-0.05787444859743118,0.13545018434524536,0.0003283527912572026,0.00026128030731342733,0.00015954833361320198,0.00013075963943265378,0.011700666509568691,0.011925666593015194,0.011475666426122189,0.011550666764378548,-0.14580634236335754,-0.14558133482933044,-0.14603133499622345,-0.14595633745193481,0.0030533333774656057,0.0027533331885933876,0.0021533332765102386,0.002453333232551813,0.010277293622493744,0.3255399465560913,0.045957718044519424,0.045899055898189545,0.00039364094845950603,0.0003936408902518451,0.00020107190357521176,0.00016104125825222582,0.011738166213035583,0.011738166213035583,0.011700666509568691,0.011813166551291943,-0.14576883614063263,-0.14576883614063263,-0.14580634236335754,-0.145693838596344,0.0031283332500606775,0.0031283332500606775,0.0030533333774656057,0.0029783332720398903
1680791205052265669,31912,1680791205052265669,dvl,1680791195250699996,1500.0,11.965087890625,55.229801177978516,1.445531964302063,1.2416167259216309,1.2416167259216309,1.445531964302063,0.13859377801418304,-0.053813133388757706,-0.06126905605196953,0.13105684518814087,0.000339422287652269,0.00015918296412564814,0.00013840824249200523,8.859239460434765e-05,0.011700666509568691,0.011475666426122189,0.011475666426122189,0.011700666509568691,-0.1459583342075348,-0.1461833268404007,-0.1461833268404007,-0.1459583342075348,0.0030533333774656057,0.0021533332765102386,0.0021533332765102386,0.0027533331885933876,0.013161234557628632,0.32379183173179626,0.04258939251303673,0.042575448751449585,0.0003448213392402977,0.0003448213101364672,0.00020189482893329114,0.00010041196219390258,0.011700666509568691,0.011700666509568691,0.011700666509568691,0.011700666509568691,-0.1459583342075348,-0.1459583342075348,-0.1459583342075348,-0.1459583342075348,0.0030533333774656057,0.0030533333774656057,0.0030533333774656057,0.0027533331885933876
1680791205177094657,31913,1680791205177094657,dvl,1680791195375699996,1500.0,11.9681396484375,55.25170135498047,1.445531964302063,1.2416167259216309,1.2416167259216309,1.445531964302063,0.13665363192558289,-0.0581321157515049,-0.06839224696159363,0.12292767316102982,0.00021783057309221476,0.00020747524104081094,0.0004119916702620685,0.0004269542114343494,0.011550666764378548,0.01177566684782505,0.011850666254758835,0.01177566684782505,-0.14620032906532288,-0.14597532153129578,-0.14590032398700714,-0.14597532153129578,0.002453333232551813,0.0030533333774656057,0.0030533333774656057,0.0033533331006765366,0.020731404423713684,0.3249598741531372,0.037597429007291794,0.03571423143148422,0.0005598007119260728,0.0005598006537184119,0.00025668489979580045,0.0002616442507132888,0.01177566684782505,0.01177566684782505,0.011850666254758835,0.01177566684782505,-0.14597532153129578,-0.14597532153129578,-0.14590032398700714,-0.14597532153129578,0.0033533331006765366,0.0033533331006765366,0.0030533333774656057,0.0033533331006765366
1680791205302674833,31914,1680791205302674833,dvl,1680791195500699996,1500.0,11.967437744140625,55.24909973144531,1.445531964302063,1.2416167259216309,1.2416167259216309,1.445531964302063,0.13613586127758026,-0.06497795879840851,-0.07478154450654984,0.12286990880966187,0.00033537286799401045,6.51475420454517e-05,9.408753976458684e-05,0.00011394541070330888,0.011700666509568691,0.01177566684782505,0.011475666426122189,0.011625666171312332,-0.14632533490657806,-0.14625032246112823,-0.14655032753944397,-0.1464003324508667,0.0033533331006765366,0.0027533331885933876,0.0021533332765102386,0.0027533331885933876,0.01997799426317215,0.3356122374534607,0.03379311412572861,0.03190908208489418,0.000313644646666944,0.0003136445884592831,0.00019185039855074137,7.234531221911311e-05,0.011700666509568691,0.011700666509568691,0.011700666509568691,0.011700666509568691,-0.14632533490657806,-0.14632533490657806,-0.14632533490657806,-0.14632533490657806,0.0033533331006765366,0.0033533331006765366,0.0033533331006765366,0.002903333166614175
1680791205427069488,31915,1680791205427069488,dvl,1680791195625699996,1500.0,11.963409423828125,55.24440002441406,1.445531964302063,1.2416167259216309,1.2416167259216309,1.445531964302063,0.1339789777994156,-0.06637010723352432,-0.07934535294771194,0.12460009753704071,0.00014629708311986178,6.735809438396245e-05,0.00017119433323387057,0.00047362950863316655,0.01177566684782505,0.011550666764378548,0.011475666426122189,0.01177566684782505,-0.14600533246994019,-0.14623034000396729,-0.14630533754825592,-0.14600533246994019,0.0030533333774656057,0.0021533332765102386,0.0021533332765102386,0.0033533331006765366,0.019383743405342102,0.34026437997817993,0.03009144961833954,0.03209540620446205,0.0004444884543772787,0.0004444883670657873,0.00012403132859617472,0.00026368346880190074,0.01177566684782505,0.01177566684782505,0.01177566684782505,0.01177566684782505,-0.14600533246994019,-0.14600533246994019,-0.14600533246994019,-0.14600533246994019,0.0033533331006765366,0.0033533331006765366,0.0030533333774656057,0.0033533331006765366
1680791205552086469,31916,1680791205552086469,dvl,1680791195750699996,1500.0,11.968170166015625,55.263301849365234,1.445531964302063,1.2416167259216309,1.3435744047164917,1.445531964302063,0.13247732818126678,-0.07113180309534073,-0.0823822021484375,0.11968617141246796,0.00011670379171846434,0.00020909454906359315,6.402302096830681e-05,0.0004561263485811651,0.011550666764378548,0.011700666509568691,0.011550666764378548,0.01177566684782505,-0.14583434164524078,-0.1456843465566635,-0.14583434164524078,-0.14560933411121368,0.0021533332765102386,0.0030533333774656057,0.0021533332765102386,0.0030533333774656057,0.020805753767490387,0.34143057465553284,0.027591705322265625,0.02676236629486084,0.0004362303880043328,0.00043623032979667187,7.331610686378554e-05,0.0002765664830803871,0.011738166213035583,0.011738166213035583,0.011550666764378548,0.011738166213035583,-0.1456468403339386,-0.1456468403339386,-0.14583434164524078,-0.1456468403339386,0.0031283332500606775,0.0031283332500606775,0.0021533332765102386,0.0031283332500606775
1680791205677736490,31917,1680791205677736490,dvl,1680791195875699996,1500.0,11.967529296875,55.24340057373047,1.445531964302063,1.2416167259216309,1.2416167259216309,1.445531964302063,0.13247066736221313,-0.0796642079949379,-0.08981658518314362,0.12425220012664795,0.00018766382709145546,0.0002505997254047543,0.00032747696968726814,0.00014257809380069375,0.011550666764378548,0.011625666171312332,0.011850666254758835,0.01177566684782505,-0.14681033790111542,-0.14673534035682678,-0.14651033282279968,-0.14658533036708832,0.0027533331885933876,0.002453333232551813,0.0030533333774656057,0.0033533331006765366,0.016062617301940918,0.35869625210762024,0.023493275046348572,0.02457616478204727,0.00039987877244129777,0.0003998787433374673,0.00020788727852050215,0.00015891744988039136,0.01177566684782505,0.01177566684782505,0.01177566684782505,0.01177566684782505,-0.14658533036708832,-0.14658533036708832,-0.14658533036708832,-0.14658533036708832,0.0033533331006765366,0.0033533331006765366,0.003203333355486393,0.0033533331006765366
1680791205802596578,31918,1680791205802596578,dvl,1680791196000999927,1500.0,11.9654541015625,55.25210189819336,1.445531964302063,1.3435744047164917,1.3435744047164917,1.445531964302063,0.1342170536518097,-0.0820217877626419,-0.08793062716722488,0.12596628069877625,0.00018866683240048587,0.00018122370238415897,0.00014771473070140928,0.00027632503770291805,0.011687666177749634,0.011837666854262352,0.01153766643255949,0.011837666854262352,-0.14618633687496185,-0.14603634178638458,-0.14633633196353912,-0.14603634178638458,0.002453333232551813,0.0030533333774656057,0.0021533332765102386,0.0033533331006765366,0.012524232268333435,0.36199936270713806,0.025493919849395752,0.024221476167440414,0.000343325111316517,0.00034332508221268654,0.00013197606313042343,0.00018213879957329482,0.011837666854262352,0.011837666854262352,0.011687666177749634,0.011837666854262352,-0.14603634178638458,-0.14603634178638458,-0.14618633687496185,-0.14603634178638458,0.0033533331006765366,0.0033533331006765366,0.002453333232551813,0.0033533331006765366
1680791205927438947,31919,1680791205927438947,dvl,1680791196125699996,1500.0,11.9678955078125,55.25239944458008,1.445531964302063,1.3435744047164917,1.3435744047164917,1.445531964302063,0.139285147190094,-0.07413433492183685,-0.08698590844869614,0.12243432551622391,0.00014672144607175142,0.0002034599456237629,0.00010525565448915586,0.0002947571047116071,0.01177566684782505,0.011325666680932045,0.011475666426122189,0.011850666254758835,-0.14621932804584503,-0.14666932821273804,-0.14651933312416077,-0.1461443305015564,0.0030533333774656057,0.0018533332040533423,0.0021533332765102386,0.003653333056718111,0.025593891739845276,0.35588139295578003,0.028805699199438095,0.02662215381860733,0.00033720998908393085,0.00033720993087626994,9.94561196421273e-05,0.0001974111219169572,0.011850666254758835,0.011850666254758835,0.01177566684782505,0.011850666254758835,-0.1461443305015564,-0.1461443305015564,-0.14621932804584503,-0.1461443305015564,0.003653333056718111,0.003653333056718111,0.0030533333774656057,0.003653333056718111
1680791206052142744,31920,1680791206052142744,dvl,1680791196250699996,1500.0,11.968505859375,55.22010040283203,1.445531964302063,1.3435744047164917,1.3435744047164917,1.445531964302063,0.14193914830684662,-0.07777312397956848,-0.08525815606117249,0.12571287155151367,0.00019565699039958417,0.00016342505114153028,0.00018964885384775698,9.750520257512107e-05,0.011850666254758835,0.011475666426122189,0.011550666764378548,0.011700666509568691,-0.14580832421779633,-0.1461833268404007,-0.14610832929611206,-0.1459583342075348,0.0030533333774656057,0.0021533332765102386,0.0021533332765102386,0.0030533333774656057,0.02056320756673813,0.36247366666793823,0.031219113618135452,0.026423592120409012,0.00027985891210846603,0.0002798588539008051,0.00015008129412308335,0.0001048915073624812,0.01177566684782505,0.01177566684782505,0.011850666254758835,0.011700666509568691,-0.14588332176208496,-0.14588332176208496,-0.14580832421779633,-0.1459583342075348,0.003203333355486393,0.003203333355486393,0.0030533333774656057,0.0030533333774656057
1680791206176559939,31921,1680791206176559939,dvl,1680791196375799894,1500.0,11.966094970703125,55.2333984375,1.445531964302063,1.3435744047164917,1.3435744047164917,1.445531964302063,0.1429055780172348,-0.06881994009017944,-0.08583593368530273,0.12330888211727142,0.0001969802106032148,0.00013746877084486187,8.315283776028082e-05,8.026928117033094e-05,0.011580666527152061,0.011730666272342205,0.011430666781961918,0.011580666527152061,-0.14559033513069153,-0.14544032514095306,-0.1457403302192688,-0.14559033513069153,0.002453333232551813,0.0027533331885933876,0.0018533332040533423,0.002453333232551813,0.0314064547419548,0.35423383116722107,0.03143317252397537,0.030033405870199203,0.00022443453781306744,0.0002244345232611522,0.00011776477913372219,8.774176239967346e-05,0.011730666272342205,0.011730666272342205,0.011580666527152061,0.011730666272342205,-0.14544032514095306,-0.14544032514095306,-0.14559033513069153,-0.14544032514095306,0.0027533331885933876,0.0027533331885933876,0.002453333232551813,0.0027533331885933876
1680791206304224878,31922,1680791206304224878,dvl,1680791196500800132,1500.0,11.963714599609375,55.23970031738281,1.445531964302063,1.3435744047164917,1.3435744047164917,1.5474895238876343,0.1430065780878067,-0.06873057037591934,-0.08541768789291382,0.12915842235088348,0.00020144367590546608,4.332286334829405e-05,0.00011345570237608626,0.00018319106311537325,0.011805666610598564,0.011655665934085846,0.011505666188895702,0.011730666272342205,-0.14799033105373383,-0.1481403410434723,-0.14829033613204956,-0.14806532859802246,0.0030533333774656057,0.0021533332765102386,0.0021533332765102386,0.0033533331006765366,0.026299715042114258,0.35880571603775024,0.03171917051076889,0.03330682963132858,0.0002509847399778664,0.00025098471087403595,0.0001273397938348353,0.00010375698911957443,0.011730666272342205,0.011730666272342205,0.011805666610598564,0.011730666272342205,-0.14806532859802246,-0.14806532859802246,-0.14799033105373383,-0.14806532859802246,0.0033533331006765366,0.0033533331006765366,0.0030533333774656057,0.0033533331006765366
1680791206427262378,31923,1680791206427262378,dvl,1680791196625800132,1500.0,11.9683837890625,55.24140167236328,1.445531964302063,1.3435744047164917,1.3435744047164917,1.445531964302063,0.14659464359283447,-0.06406883895397186,-0.08275814354419708,0.12634019553661346,0.00022535299649462104,0.0001062400042428635,0.00022932866704650223,6.350562034640461e-05,0.011881666257977486,0.011731666512787342,0.011581666767597198,0.011656666174530983,-0.14589934051036835,-0.14604933559894562,-0.14619934558868408,-0.14612433314323425,0.0033533331006765366,0.0027533331885933876,0.002453333232551813,0.002453333232551813,0.033366575837135315,0.35330426692962646,0.03516026958823204,0.034322939813137054,0.0002902931300923228,0.0002902930718846619,0.00017708925588522106,6.822193245170638e-05,0.011881666257977486,0.011881666257977486,0.011881666257977486,0.011731666512787342,-0.14589934051036835,-0.14589934051036835,-0.14589934051036835,-0.14604933559894562,0.0033533331006765366,0.0033533331006765366,0.0033533331006765366,0.0027533331885933876
1680791206552613839,31924,1680791206552613839,dvl,1680791196750799894,1500.0,11.969085693359375,55.267601013183594,1.445531964302063,1.3435744047164917,1.3435744047164917,1.445531964302063,0.150209441781044,-0.050511620938777924,-0.0712909996509552,0.13394790887832642,0.000266267015831545,0.00029086650465615094,0.00019776049884967506,0.0002487268066033721,0.011731666512787342,0.011731666512787342,0.011656666174530983,0.011581666767597198,-0.14629432559013367,-0.14629432559013367,-0.1463693231344223,-0.14644432067871094,0.0027533331885933876,0.0030533333774656057,0.0027533331885933876,0.002453333232551813,0.031745731830596924,0.3416866660118103,0.0434671975672245,0.04598868638277054,0.0004260869463905692,0.0004260868881829083,0.00018268125131726265,0.00021094434487167746,0.011731666512787342,0.011731666512787342,0.01169416680932045,0.011731666512787342,-0.14629432559013367,-0.14629432559013367,-0.14633183181285858,-0.14629432559013367,0.0030533333774656057,0.0030533333774656057,0.0028283330611884594,0.0030533333774656057
1680791206677500234,31925,1680791206677500234,dvl,1680791196875799894,1500.0,11.962066650390625,55.25130081176758,1.445531964302063,1.3435744047164917,1.3435744047164917,1.445531964302063,0.15616732835769653,-0.04606109857559204,-0.05557476356625557,0.1435786336660385,0.0003028886567335576,0.00010425900109112263,5.629595398204401e-05,0.00018767165602184832,0.011956666596233845,0.011431667022407055,0.01150666642934084,0.011656666174530983,-0.14603833854198456,-0.1465633362531662,-0.14648833870887756,-0.1463383287191391,0.0033533331006765366,0.0018533332040533423,0.0021533332765102386,0.0027533331885933876,0.01916777342557907,0.3378128409385681,0.05540499836206436,0.05375004559755325,0.00031618631328456104,0.0003161862550769001,0.00016968403360806406,0.00011833198368549347,0.011956666596233845,0.011956666596233845,0.011956666596233845,0.011656666174530983,-0.14603833854198456,-0.14603833854198456,-0.14603833854198456,-0.1463383287191391,0.0033533331006765366,0.0033533331006765366,0.0033533331006765366,0.0027533331885933876
1680791206802305636,31926,1680791206802305636,dvl,1680791197000999927,1500.0,11.963134765625,55.25659942626953,1.445531964302063,1.3435744047164917,1.3435744047164917,1.445531964302063,0.16063553094863892,-0.032905880361795425,-0.044505126774311066,0.14743982255458832,0.0003806361637543887,0.00026751295081339777,0.0001172526681330055,0.00023940909886732697,0.011687666177749634,0.011912666261196136,0.01161266677081585,0.011762666516005993,-0.14581933617591858,-0.14559432864189148,-0.14589433372020721,-0.14574433863162994,0.0027533331885933876,0.0030533333774656057,0.0021533332765102386,0.0027533331885933876,0.02141123265028,0.3244398534297943,0.06396303325891495,0.06312920153141022,0.0004513176972977817,0.00045131760998629034,0.0002193707477999851,0.0001978739455807954,0.011875166557729244,0.011875166557729244,0.011687666177749634,0.011912666261196136,-0.1456318348646164,-0.1456318348646164,-0.14581933617591858,-0.14559432864189148,0.0031283332500606775,0.0031283332500606775,0.0027533331885933876,0.0030533333774656057
1680791206926715479,31927,1680791206926715479,dvl,1680791197125799894,1500.0,11.96514892578125,55.239898681640625,1.445531964302063,1.3435744047164917,1.3435744047164917,1.445531964302063,0.16524186730384827,-0.02428443916141987,-0.03568617254495621,0.15458270907402039,0.00034395899274386466,8.724583312869072e-05,0.00011718046152964234,0.00017658939759712666,0.011655665934085846,0.011430666781961918,0.011730666272342205,0.011655665934085846,-0.14563733339309692,-0.14586234092712402,-0.1455623358488083,-0.14563733339309692,0.002453333232551813,0.0018533332040533423,0.002453333232551813,0.0027533331885933876,0.019102349877357483,0.31964659690856934,0.07135750353336334,0.07181823253631592,0.00034814878017641604,0.0003481487510725856,0.00020014024630654603,0.00010856442531803623,0.011655665934085846,0.011655665934085846,0.011693166568875313,0.011655665934085846,-0.14563733339309692,-0.14563733339309692,-0.1455998420715332,-0.14563733339309692,0.0027533331885933876,0.0027533331885933876,0.002528333105146885,0.0027533331885933876
1680791207052183307,31928,1680791207052183307,dvl,1680791197250799894,1500.0,11.966461181640625,55.230098724365234,1.445531964302063,1.2416167259216309,1.3435744047164917,1.445531964302063,0.16715215146541595,-0.019676202908158302,-0.0254255011677742,0.16053004562854767,0.00014145529712550342,0.0001302680466324091,0.0001854521979112178,0.00020082981791347265,0.011655665934085846,0.011430666781961918,0.011430666781961918,0.011805666610598564,-0.1460033357143402,-0.14622832834720612,-0.14622832834720612,-0.14585332572460175,0.0027533331885933876,0.0018533332040533423,0.0021533332765102386,0.0030533333774656057,0.010938271880149841,0.3137325644493103,0.07806109637022018,0.07763628661632538,0.0002812517632264644,0.00028125173412263393,0.0001284668396692723,0.0001319417788181454,0.011805666610598564,0.011805666610598564,0.011655665934085846,0.011805666610598564,-0.14585332572460175,-0.14585332572460175,-0.1460033357143402,-0.14585332572460175,0.0030533333774656057,0.0030533333774656057,0.0027533331885933876,0.0030533333774656057
1680791207176578324,31929,1680791207176578324,dvl,1680791197375799894,1500.0,11.965850830078125,55.25579833984375,1.445531964302063,1.2416167259216309,1.3435744047164917,1.445531964302063,0.17087817192077637,-0.01031232438981533,-0.015628939494490623,0.1578395962715149,0.00016299421258736402,0.00012911547673866153,0.00027639992185868323,0.00032841338543221354,0.011580666527152061,0.011580666527152061,0.011955666355788708,0.011655665934085846,-0.14562134444713593,-0.14562134444713593,-0.14524634182453156,-0.1455463469028473,0.002453333232551813,0.0021533332765102386,0.0030533333774656057,0.0027533331885933876,0.015948280692100525,0.2984880805015564,0.08550915122032166,0.0813145712018013,0.0004013202269561589,0.00040132016874849796,0.00017673635738901794,0.00019450300897005945,0.011880666017532349,0.011880666017532349,0.011918166652321815,0.011655665934085846,-0.1453213393688202,-0.1453213393688202,-0.14528383314609528,-0.1455463469028473,0.003203333355486393,0.003203333355486393,0.003128333482891321,0.0027533331885933876
